%time,field.header.seq,field.header.stamp,field.header.frame_id,field.orientation.x,field.orientation.y,field.orientation.z,field.orientation.w,field.orientation_covariance0,field.orientation_covariance1,field.orientation_covariance2,field.orientation_covariance3,field.orientation_covariance4,field.orientation_covariance5,field.orientation_covariance6,field.orientation_covariance7,field.orientation_covariance8,field.angular_velocity.x,field.angular_velocity.y,field.angular_velocity.z,field.angular_velocity_covariance0,field.angular_velocity_covariance1,field.angular_velocity_covariance2,field.angular_velocity_covariance3,field.angular_velocity_covariance4,field.angular_velocity_covariance5,field.angular_velocity_covariance6,field.angular_velocity_covariance7,field.angular_velocity_covariance8,field.linear_acceleration.x,field.linear_acceleration.y,field.linear_acceleration.z,field.linear_acceleration_covariance0,field.linear_acceleration_covariance1,field.linear_acceleration_covariance2,field.linear_acceleration_covariance3,field.linear_acceleration_covariance4,field.linear_acceleration_covariance5,field.linear_acceleration_covariance6,field.linear_acceleration_covariance7,field.linear_acceleration_covariance8
1575431731975266131,21540,1570162025068691968,base_imu_link,-0.0359020831277,0.0606742229545,-0.307554221402,0.948915212226,0.0025,0.0,0.0,0.0,0.0025,0.0,0.0,0.0,0.0025,-0.03,0.0,0.03,0.02,0.0,0.0,0.0,0.02,0.0,0.0,0.0,0.02,-0.97676953125,-1.01047765625,9.48041015625,0.04,0.0,0.0,0.0,0.04,0.0,0.0,0.0,0.04
1575431732005974442,21541,1570162025088553905,base_imu_link,-0.0357332459063,0.0611733802651,-0.307603052875,0.948873708428,0.0025,0.0,0.0,0.0,0.0025,0.0,0.0,0.0,0.0025,-0.03,0.01,0.03,0.02,0.0,0.0,0.0,0.02,0.0,0.0,0.0,0.02,-0.909736328125,-0.924292109375,9.78684765625,0.04,0.0,0.0,0.0,0.04,0.0,0.0,0.0,0.04
1575431732006016741,21542,1570162025108460903,base_imu_link,-0.035257707086,0.0610000077601,-0.307303796386,0.948999615316,0.0025,0.0,0.0,0.0,0.0025,0.0,0.0,0.0,0.0025,-0.04,0.0,0.03,0.02,0.0,0.0,0.0,0.02,0.0,0.0,0.0,0.02,-0.87641125,-0.9913253125,9.56199914062,0.04,0.0,0.0,0.0,0.04,0.0,0.0,0.0,0.04
1575431732022205164,21543,1570162025128478050,base_imu_link,-0.0352240389386,0.0608108987689,-0.307403165757,0.948980819276,0.0025,0.0,0.0,0.0,0.0025,0.0,0.0,0.0,0.0025,-0.04,-0.01,0.02,0.02,0.0,0.0,0.0,0.02,0.0,0.0,0.0,0.02,-1.01507421875,-1.00090148437,9.58115148437,0.04,0.0,0.0,0.0,0.04,0.0,0.0,0.0,0.04
1575431732033169814,21544,1570162025148300886,base_imu_link,-0.0350718350578,0.0612334811676,-0.307623496134,0.948887881573,0.0025,0.0,0.0,0.0,0.0025,0.0,0.0,0.0,0.0025,-0.03,-0.01,0.03,0.02,0.0,0.0,0.0,0.02,0.0,0.0,0.0,0.02,-0.924292109375,-1.05835851562,9.8872059375,0.04,0.0,0.0,0.0,0.04,0.0,0.0,0.0,0.04
1575431732080464641,21545,1570162025168661117,base_imu_link,-0.0351931593826,0.0611041990266,-0.307877821689,0.948809235466,0.0025,0.0,0.0,0.0,0.0025,0.0,0.0,0.0,0.0025,-0.03,-0.01,0.03,0.02,0.0,0.0,0.0,0.02,0.0,0.0,0.0,0.02,-0.8043984375,-1.00549804687,9.52369445312,0.04,0.0,0.0,0.0,0.04,0.0,0.0,0.0,0.04
1575431732080612624,21546,1570162025188294887,base_imu_link,-0.0352793113481,0.0605782533671,-0.307834041658,0.94885396569,0.0025,0.0,0.0,0.0,0.0025,0.0,0.0,0.0,0.0025,-0.03,-0.0,0.03,0.02,0.0,0.0,0.0,0.02,0.0,0.0,0.0,0.02,-0.852279296875,-0.885987421875,9.65776085937,0.04,0.0,0.0,0.0,0.04,0.0,0.0,0.0,0.04
1575431732106023441,21547,1570162025208523988,base_imu_link,-0.034698679758,0.0601153050907,-0.307892898169,0.948885722821,0.0025,0.0,0.0,0.0,0.0025,0.0,0.0,0.0,0.0025,-0.03,0.0,0.03,0.02,0.0,0.0,0.0,0.02,0.0,0.0,0.0,0.02,-0.9147159375,-0.962596796875,9.70066210937,0.04,0.0,0.0,0.0,0.04,0.0,0.0,0.0,0.04
1575431732142250939,21548,1570162025228342056,base_imu_link,-0.0344943000804,0.0602178904819,-0.307643894949,0.948967429804,0.0025,0.0,0.0,0.0,0.0025,0.0,0.0,0.0,0.0025,-0.03,0.0,0.03,0.02,0.0,0.0,0.0,0.02,0.0,0.0,0.0,0.02,-1.02005382812,-0.93846484375,9.8014034375,0.04,0.0,0.0,0.0,0.04,0.0,0.0,0.0,0.04
1575431732142265518,21549,1570162025248364925,base_imu_link,-0.0340365901561,0.0605858185653,-0.307052084004,0.949152193712,0.0025,0.0,0.0,0.0,0.0025,0.0,0.0,0.0,0.0025,-0.04,-0.0,0.03,0.02,0.0,0.0,0.0,0.02,0.0,0.0,0.0,0.02,-0.905139765625,-1.11581554687,9.78684765625,0.04,0.0,0.0,0.0,0.04,0.0,0.0,0.0,0.04
1575431732167901099,21550,1570162025268407106,base_imu_link,-0.0346337517529,0.06062915118,-0.307605883104,0.948948486456,0.0025,0.0,0.0,0.0,0.0025,0.0,0.0,0.0,0.0025,-0.04,-0.01,0.02,0.02,0.0,0.0,0.0,0.02,0.0,0.0,0.0,0.02,-0.89556359375,-1.08708703125,9.63860851562,0.04,0.0,0.0,0.0,0.04,0.0,0.0,0.0,0.04
1575431732193443623,21551,1570162025288402080,base_imu_link,-0.0351023011332,0.060598008691,-0.307590594349,0.948938215094,0.0025,0.0,0.0,0.0,0.0025,0.0,0.0,0.0,0.0025,-0.03,-0.01,0.03,0.02,0.0,0.0,0.0,0.02,0.0,0.0,0.0,0.02,-0.93386828125,-1.04380273437,9.8443046875,0.04,0.0,0.0,0.0,0.04,0.0,0.0,0.0,0.04
1575431732193479702,21552,1570162025308278083,base_imu_link,-0.0350758569233,0.0606133191902,-0.308004617462,0.948803913051,0.0025,0.0,0.0,0.0,0.0025,0.0,0.0,0.0,0.0025,-0.03,-0.01,0.03,0.02,0.0,0.0,0.0,0.02,0.0,0.0,0.0,0.02,-0.74694140625,-1.05835851562,9.55242296875,0.04,0.0,0.0,0.0,0.04,0.0,0.0,0.0,0.04
1575431732242470054,21553,1570162025328181028,base_imu_link,-0.0356011850623,0.0599313195459,-0.30754236282,0.948977601227,0.0025,0.0,0.0,0.0,0.0025,0.0,0.0,0.0,0.0025,-0.03,-0.0,0.03,0.02,0.0,0.0,0.0,0.02,0.0,0.0,0.0,0.02,-0.928888671875,-0.93846484375,9.5715753125,0.04,0.0,0.0,0.0,0.04,0.0,0.0,0.0,0.04
1575431732242666125,21554,1570162025348261117,base_imu_link,-0.0351525466716,0.0600175873561,-0.306806368199,0.9492270751,0.0025,0.0,0.0,0.0,0.0025,0.0,0.0,0.0,0.0025,-0.03,0.0,0.03,0.02,0.0,0.0,0.0,0.02,0.0,0.0,0.0,0.02,-0.741961796875,-1.01507421875,9.62903234375,0.04,0.0,0.0,0.0,0.04,0.0,0.0,0.0,0.04
1575431732316422605,21555,1570162025368273973,base_imu_link,-0.0354320322051,0.0593950781779,-0.307176958545,0.949135981786,0.0025,0.0,0.0,0.0,0.0025,0.0,0.0,0.0,0.0025,-0.03,0.0,0.03,0.02,0.0,0.0,0.0,0.02,0.0,0.0,0.0,0.02,-0.948041015625,-0.9913253125,9.62405273437,0.04,0.0,0.0,0.0,0.04,0.0,0.0,0.0,0.04
1575431732316450140,21556,1570162025388282060,base_imu_link,-0.0352456111246,0.0596959910836,-0.30707710678,0.949156354894,0.0025,0.0,0.0,0.0,0.0025,0.0,0.0,0.0,0.0025,-0.04,-0.0,0.03,0.02,0.0,0.0,0.0,0.02,0.0,0.0,0.0,0.02,-1.01047765625,-1.00090148437,9.65776085937,0.04,0.0,0.0,0.0,0.04,0.0,0.0,0.0,0.04
1575431732316501798,21557,1570162025408566951,base_imu_link,-0.0350719361284,0.060198306164,-0.307209381532,0.949088256765,0.0025,0.0,0.0,0.0,0.0025,0.0,0.0,0.0,0.0025,-0.04,-0.01,0.03,0.02,0.0,0.0,0.0,0.02,0.0,0.0,0.0,0.02,-0.905139765625,-1.08210742187,9.7247940625,0.04,0.0,0.0,0.0,0.04,0.0,0.0,0.0,0.04
1575431732316508364,21558,1570162025428255081,base_imu_link,-0.0354146715395,0.0602321214148,-0.307442405233,0.948997924157,0.0025,0.0,0.0,0.0,0.0025,0.0,0.0,0.0,0.0025,-0.03,-0.01,0.03,0.02,0.0,0.0,0.0,0.02,0.0,0.0,0.0,0.02,-0.967193359375,-1.02963,9.729390625,0.04,0.0,0.0,0.0,0.04,0.0,0.0,0.0,0.04
1575431732382795892,21559,1570162025448184967,base_imu_link,-0.0353488059283,0.0604709193937,-0.307177146662,0.949071088168,0.0025,0.0,0.0,0.0,0.0025,0.0,0.0,0.0,0.0025,-0.03,-0.01,0.03,0.02,0.0,0.0,0.0,0.02,0.0,0.0,0.0,0.02,-0.89556359375,-0.890583984375,9.4183565625,0.04,0.0,0.0,0.0,0.04,0.0,0.0,0.0,0.04
1575431732382838145,21560,1570162025468097925,base_imu_link,-0.034856275151,0.0603745236384,-0.306706222467,0.949247728508,0.0025,0.0,0.0,0.0,0.0025,0.0,0.0,0.0,0.0025,-0.03,-0.0,0.03,0.02,0.0,0.0,0.0,0.02,0.0,0.0,0.0,0.02,-0.852279296875,-1.02005382812,9.66733703125,0.04,0.0,0.0,0.0,0.04,0.0,0.0,0.0,0.04
1575431732382848100,21561,1570162025488193035,base_imu_link,-0.0349272807746,0.0601324988381,-0.306888568298,0.949201545663,0.0025,0.0,0.0,0.0,0.0025,0.0,0.0,0.0,0.0025,-0.03,0.0,0.03,0.02,0.0,0.0,0.0,0.02,0.0,0.0,0.0,0.02,-1.02005382812,-0.866835078125,9.62903234375,0.04,0.0,0.0,0.0,0.04,0.0,0.0,0.0,0.04
1575431732389694985,21562,1570162025508064031,base_imu_link,-0.0340683081495,0.0605679887442,-0.306555067011,0.949312835692,0.0025,0.0,0.0,0.0,0.0025,0.0,0.0,0.0,0.0025,-0.04,0.0,0.03,0.02,0.0,0.0,0.0,0.02,0.0,0.0,0.0,0.02,-0.953020625,-1.03920617187,9.65278125,0.04,0.0,0.0,0.0,0.04,0.0,0.0,0.0,0.04
1575431732417629350,21563,1570162025528069019,base_imu_link,-0.0343188220415,0.0608553940574,-0.306936992806,0.949162010362,0.0025,0.0,0.0,0.0,0.0025,0.0,0.0,0.0,0.0025,-0.04,-0.0,0.02,0.02,0.0,0.0,0.0,0.02,0.0,0.0,0.0,0.02,-1.02465039062,-1.03920617187,9.82515234375,0.04,0.0,0.0,0.0,0.04,0.0,0.0,0.0,0.04
1575431732441121799,21564,1570162025548274993,base_imu_link,-0.0342768632409,0.0612219417549,-0.307157910616,0.949068484589,0.0025,0.0,0.0,0.0,0.0025,0.0,0.0,0.0,0.0025,-0.03,-0.01,0.02,0.02,0.0,0.0,0.0,0.02,0.0,0.0,0.0,0.02,-0.9193125,-1.00549804687,9.7247940625,0.04,0.0,0.0,0.0,0.04,0.0,0.0,0.0,0.04
1575431732448776787,21565,1570162025568047046,base_imu_link,-0.0343414172208,0.0611182862846,-0.306583664628,0.949258488889,0.0025,0.0,0.0,0.0,0.0025,0.0,0.0,0.0,0.0025,-0.03,-0.01,0.03,0.02,0.0,0.0,0.0,0.02,0.0,0.0,0.0,0.02,-0.852279296875,-1.02465039062,9.729390625,0.04,0.0,0.0,0.0,0.04,0.0,0.0,0.0,0.04
1575431732472349960,21566,1570162025588068008,base_imu_link,-0.0344613297527,0.0607137758278,-0.306859958849,0.949190823719,0.0025,0.0,0.0,0.0,0.0025,0.0,0.0,0.0,0.0025,-0.03,-0.01,0.03,0.02,0.0,0.0,0.0,0.02,0.0,0.0,0.0,0.02,-0.8043984375,-1.00090148437,9.71521789062,0.04,0.0,0.0,0.0,0.04,0.0,0.0,0.0,0.04
1575431732573049931,21567,1570162025608055114,base_imu_link,-0.0345635192138,0.0601110921987,-0.306986845639,0.949184437472,0.0025,0.0,0.0,0.0,0.0025,0.0,0.0,0.0,0.0025,-0.03,-0.0,0.03,0.02,0.0,0.0,0.0,0.02,0.0,0.0,0.0,0.02,-0.9576171875,-0.943444453125,9.87303320312,0.04,0.0,0.0,0.0,0.04,0.0,0.0,0.0,0.04
1575431732573113690,21568,1570162025628062963,base_imu_link,-0.0341769151316,0.0602371336969,-0.306577108655,0.949322865334,0.0025,0.0,0.0,0.0,0.0025,0.0,0.0,0.0,0.0025,-0.03,0.0,0.03,0.02,0.0,0.0,0.0,0.02,0.0,0.0,0.0,0.02,-0.948041015625,-0.948041015625,9.89678210937,0.04,0.0,0.0,0.0,0.04,0.0,0.0,0.0,0.04
1575431732573173480,21569,1570162025648046970,base_imu_link,-0.0337973660774,0.060224631974,-0.306923999444,0.949225152593,0.0025,0.0,0.0,0.0,0.0025,0.0,0.0,0.0,0.0025,-0.03,0.0,0.03,0.02,0.0,0.0,0.0,0.02,0.0,0.0,0.0,0.02,-1.03920617187,-0.909736328125,9.58574804687,0.04,0.0,0.0,0.0,0.04,0.0,0.0,0.0,0.04
1575431732573231466,21570,1570162025668101072,base_imu_link,-0.0332751016932,0.0607646322193,-0.306487115598,0.949350343683,0.0025,0.0,0.0,0.0,0.0025,0.0,0.0,0.0,0.0025,-0.04,-0.0,0.03,0.02,0.0,0.0,0.0,0.02,0.0,0.0,0.0,0.02,-0.953020625,-0.995921875,9.82515234375,0.04,0.0,0.0,0.0,0.04,0.0,0.0,0.0,0.04
1575431732635576536,21571,1570162025688028097,base_imu_link,-0.0333632529342,0.0607884667727,-0.306398964357,0.949374178236,0.0025,0.0,0.0,0.0,0.0025,0.0,0.0,0.0,0.0025,-0.04,-0.01,0.03,0.02,0.0,0.0,0.0,0.02,0.0,0.0,0.0,0.02,-0.981749140625,-1.1108359375,9.67691320312,0.04,0.0,0.0,0.0,0.04,0.0,0.0,0.0,0.04
1575431732635606503,21572,1570162025708030939,base_imu_link,-0.0338889075931,0.0611410534957,-0.306350716353,0.949348488233,0.0025,0.0,0.0,0.0,0.0025,0.0,0.0,0.0,0.0025,-0.03,-0.01,0.03,0.02,0.0,0.0,0.0,0.02,0.0,0.0,0.0,0.02,-0.8810078125,-0.962596796875,9.65776085937,0.04,0.0,0.0,0.0,0.04,0.0,0.0,0.0,0.04
1575431732635630803,21573,1570162025728327035,base_imu_link,-0.0338099400376,0.0608364860485,-0.306295073284,0.949388823403,0.0025,0.0,0.0,0.0,0.0025,0.0,0.0,0.0,0.0025,-0.03,-0.0,0.03,0.02,0.0,0.0,0.0,0.02,0.0,0.0,0.0,0.02,-0.75153796875,-1.01507421875,9.50913867187,0.04,0.0,0.0,0.0,0.04,0.0,0.0,0.0,0.04
1575431732635656785,21574,1570162025747992992,base_imu_link,-0.0341716583199,0.060240115966,-0.306659951535,0.949296107819,0.0025,0.0,0.0,0.0,0.0025,0.0,0.0,0.0,0.0025,-0.03,0.0,0.03,0.02,0.0,0.0,0.0,0.02,0.0,0.0,0.0,0.02,-0.8381065625,-0.953020625,9.67691320312,0.04,0.0,0.0,0.0,0.04,0.0,0.0,0.0,0.04
1575431732666973825,21575,1570162025767941951,base_imu_link,-0.0340369820368,0.0598260017978,-0.306614785861,0.949341722697,0.0025,0.0,0.0,0.0,0.0025,0.0,0.0,0.0,0.0025,-0.03,0.01,0.03,0.02,0.0,0.0,0.0,0.02,0.0,0.0,0.0,0.02,-0.93846484375,-1.03920617187,9.52829101562,0.04,0.0,0.0,0.0,0.04,0.0,0.0,0.0,0.04
1575431732687310415,21576,1570162025787760019,base_imu_link,-0.0342869103621,0.0601811729378,-0.306577362598,0.949322366188,0.0025,0.0,0.0,0.0,0.0025,0.0,0.0,0.0,0.0025,-0.04,0.0,0.03,0.02,0.0,0.0,0.0,0.02,0.0,0.0,0.0,0.02,-1.01507421875,-1.01047765625,9.55701953125,0.04,0.0,0.0,0.0,0.04,0.0,0.0,0.0,0.04
1575431732705882034,21577,1570162025807780027,base_imu_link,-0.0342731435922,0.0608076835948,-0.306362433134,0.949352324908,0.0025,0.0,0.0,0.0,0.0025,0.0,0.0,0.0,0.0025,-0.04,-0.01,0.03,0.02,0.0,0.0,0.0,0.02,0.0,0.0,0.0,0.02,-0.909736328125,-0.89556359375,9.59072765625,0.04,0.0,0.0,0.0,0.04,0.0,0.0,0.0,0.04
1575431732732082331,21578,1570162025827754974,base_imu_link,-0.0338543148562,0.0606090185187,-0.306891486834,0.949209169545,0.0025,0.0,0.0,0.0,0.0025,0.0,0.0,0.0,0.0025,-0.04,-0.01,0.03,0.02,0.0,0.0,0.0,0.02,0.0,0.0,0.0,0.02,-0.81895421875,-1.12998828125,9.85388085937,0.04,0.0,0.0,0.0,0.04,0.0,0.0,0.0,0.04
1575431732761385194,21579,1570162025847846031,base_imu_link,-0.0346515989386,0.0601348579324,-0.306898765914,0.949208203206,0.0025,0.0,0.0,0.0,0.0025,0.0,0.0,0.0,0.0025,-0.03,-0.01,0.03,0.02,0.0,0.0,0.0,0.02,0.0,0.0,0.0,0.02,-0.81895421875,-1.05337890625,9.67691320312,0.04,0.0,0.0,0.0,0.04,0.0,0.0,0.0,0.04
1575431732761394597,21580,1570162025867850065,base_imu_link,-0.0349635994255,0.0597687978649,-0.306750313294,0.949267866733,0.0025,0.0,0.0,0.0,0.0025,0.0,0.0,0.0,0.0025,-0.03,-0.0,0.03,0.02,0.0,0.0,0.0,0.02,0.0,0.0,0.0,0.02,-0.890583984375,-1.00090148437,9.68150976562,0.04,0.0,0.0,0.0,0.04,0.0,0.0,0.0,0.04
1575431732818022259,21581,1570162025887881994,base_imu_link,-0.0348755464354,0.0597450723157,-0.306838366284,0.949244141183,0.0025,0.0,0.0,0.0,0.0025,0.0,0.0,0.0,0.0025,-0.03,0.0,0.03,0.02,0.0,0.0,0.0,0.02,0.0,0.0,0.0,0.02,-0.905139765625,-1.03920617187,9.86805359375,0.04,0.0,0.0,0.0,0.04,0.0,0.0,0.0,0.04
1575431732818143681,21582,1570162025907744884,base_imu_link,-0.0350157442214,0.0597382636141,-0.305921804109,0.949535195392,0.0025,0.0,0.0,0.0,0.0025,0.0,0.0,0.0,0.0025,-0.03,0.0,0.03,0.02,0.0,0.0,0.0,0.02,0.0,0.0,0.0,0.02,-1.09168359375,-0.995921875,9.729390625,0.04,0.0,0.0,0.0,0.04,0.0,0.0,0.0,0.04
1575431732818240128,21583,1570162025927788019,base_imu_link,-0.0346242652592,0.0606276612076,-0.306031775949,0.949457739481,0.0025,0.0,0.0,0.0,0.0025,0.0,0.0,0.0,0.0025,-0.04,0.0,0.03,0.02,0.0,0.0,0.0,0.02,0.0,0.0,0.0,0.02,-0.943444453125,-0.97217296875,9.7676953125,0.04,0.0,0.0,0.0,0.04,0.0,0.0,0.0,0.04
1575431733038569044,21584,1570162025947848081,base_imu_link,-0.0344049735205,0.0606719907879,-0.306451062821,0.949327632289,0.0025,0.0,0.0,0.0,0.0025,0.0,0.0,0.0,0.0025,-0.04,-0.01,0.03,0.02,0.0,0.0,0.0,0.02,0.0,0.0,0.0,0.02,-0.948041015625,-0.981749140625,9.70066210937,0.04,0.0,0.0,0.0,0.04,0.0,0.0,0.0,0.04
1575431733038585692,21585,1570162025967751026,base_imu_link,-0.0342843835374,0.060733945868,-0.306616502946,0.949274611999,0.0025,0.0,0.0,0.0,0.0025,0.0,0.0,0.0,0.0025,-0.04,-0.01,0.03,0.02,0.0,0.0,0.0,0.02,0.0,0.0,0.0,0.02,-0.9147159375,-0.924292109375,9.71521789062,0.04,0.0,0.0,0.0,0.04,0.0,0.0,0.0,0.04
1575431733038591378,21586,1570162025987884998,base_imu_link,-0.0338709313298,0.0605322269444,-0.307062653548,0.949158119761,0.0025,0.0,0.0,0.0,0.0025,0.0,0.0,0.0,0.0025,-0.03,-0.01,0.03,0.02,0.0,0.0,0.0,0.02,0.0,0.0,0.0,0.02,-0.81895421875,-1.05835851562,9.62405273437,0.04,0.0,0.0,0.0,0.04,0.0,0.0,0.0,0.04
1575431733038620092,21587,1570162026007684946,base_imu_link,-0.0343969055039,0.0601252122238,-0.306577626309,0.949321847844,0.0025,0.0,0.0,0.0,0.0025,0.0,0.0,0.0,0.0025,-0.03,-0.0,0.03,0.02,0.0,0.0,0.0,0.02,0.0,0.0,0.0,0.02,-0.8810078125,-0.967193359375,9.75811914062,0.04,0.0,0.0,0.0,0.04,0.0,0.0,0.0,0.04
1575431733038652420,21588,1570162026027631998,base_imu_link,-0.0341807553693,0.0599592494186,-0.306516003107,0.949360049829,0.0025,0.0,0.0,0.0,0.0025,0.0,0.0,0.0,0.0025,-0.03,0.0,0.03,0.02,0.0,0.0,0.0,0.02,0.0,0.0,0.0,0.02,-0.890583984375,-0.948041015625,9.81557617187,0.04,0.0,0.0,0.0,0.04,0.0,0.0,0.0,0.04
1575431733038675491,21589,1570162026047697067,base_imu_link,-0.0339645726332,0.0597933173568,-0.306454308922,0.949398190196,0.0025,0.0,0.0,0.0,0.0025,0.0,0.0,0.0,0.0025,-0.03,0.0,0.03,0.02,0.0,0.0,0.0,0.02,0.0,0.0,0.0,0.02,-0.97217296875,-1.02963,9.686489375,0.04,0.0,0.0,0.0,0.04,0.0,0.0,0.0,0.04
1575431733038680696,21590,1570162026067595958,base_imu_link,-0.0340940709532,0.0602103795678,-0.306582364169,0.949325844217,0.0025,0.0,0.0,0.0,0.0025,0.0,0.0,0.0,0.0025,-0.04,-0.0,0.03,0.02,0.0,0.0,0.0,0.02,0.0,0.0,0.0,0.02,-0.948041015625,-1.09666320312,9.59532421875,0.04,0.0,0.0,0.0,0.04,0.0,0.0,0.0,0.04
1575431733038701491,21591,1570162026087618112,base_imu_link,-0.0346468220548,0.0604803603879,-0.306539976324,0.949302357863,0.0025,0.0,0.0,0.0,0.0025,0.0,0.0,0.0,0.0025,-0.04,-0.01,0.02,0.02,0.0,0.0,0.0,0.02,0.0,0.0,0.0,0.02,-0.871431640625,-1.11581554687,9.54284679687,0.04,0.0,0.0,0.0,0.04,0.0,0.0,0.0,0.04
1575431733038723369,21592,1570162026107541084,base_imu_link,-0.0352598980414,0.0605144986572,-0.306845517556,0.949178889039,0.0025,0.0,0.0,0.0,0.0025,0.0,0.0,0.0,0.0025,-0.03,-0.01,0.03,0.02,0.0,0.0,0.0,0.02,0.0,0.0,0.0,0.02,-0.962596796875,-1.07253125,9.70564171875,0.04,0.0,0.0,0.0,0.04,0.0,0.0,0.0,0.04
1575431733071773320,21593,1570162026127660989,base_imu_link,-0.0354593263803,0.0607571292305,-0.306735588798,0.949191490683,0.0025,0.0,0.0,0.0,0.0025,0.0,0.0,0.0,0.0025,-0.03,-0.01,0.03,0.02,0.0,0.0,0.0,0.02,0.0,0.0,0.0,0.02,-0.8810078125,-0.909736328125,9.70564171875,0.04,0.0,0.0,0.0,0.04,0.0,0.0,0.0,0.04
1575431733071787228,21594,1570162026147490024,base_imu_link,-0.0349383328291,0.0604687554298,-0.306281168426,0.949375946811,0.0025,0.0,0.0,0.0,0.0025,0.0,0.0,0.0,0.0025,-0.03,0.0,0.03,0.02,0.0,0.0,0.0,0.02,0.0,0.0,0.0,0.02,-0.8810078125,-1.01047765625,9.61945617187,0.04,0.0,0.0,0.0,0.04,0.0,0.0,0.0,0.04
1575431733071824280,21595,1570162026167500972,base_imu_link,-0.0349654642167,0.0603860377625,-0.306286737317,0.94937841628,0.0025,0.0,0.0,0.0,0.0025,0.0,0.0,0.0,0.0025,-0.03,0.01,0.03,0.02,0.0,0.0,0.0,0.02,0.0,0.0,0.0,0.02,-0.943444453125,-0.962596796875,9.91133789062,0.04,0.0,0.0,0.0,0.04,0.0,0.0,0.0,0.04
1575431733091964940,21596,1570162026187717914,base_imu_link,-0.0346122034175,0.0603588191968,-0.306219406438,0.94941481105,0.0025,0.0,0.0,0.0,0.0025,0.0,0.0,0.0,0.0025,-0.03,0.0,0.03,0.02,0.0,0.0,0.0,0.02,0.0,0.0,0.0,0.02,-0.943444453125,-0.995921875,9.69606554687,0.04,0.0,0.0,0.0,0.04,0.0,0.0,0.0,0.04
1575431733171604662,21597,1570162026207525014,base_imu_link,-0.0345368269586,0.0605363210787,-0.30653970773,0.949302885805,0.0025,0.0,0.0,0.0,0.0025,0.0,0.0,0.0,0.0025,-0.03,-0.0,0.02,0.02,0.0,0.0,0.0,0.02,0.0,0.0,0.0,0.02,-0.909736328125,-1.07253125,9.76309875,0.04,0.0,0.0,0.0,0.04,0.0,0.0,0.0,0.04
1575431733171663046,21598,1570162026227600097,base_imu_link,-0.0349172231234,0.0604809475244,-0.306612544482,0.949268976677,0.0025,0.0,0.0,0.0,0.0025,0.0,0.0,0.0,0.0025,-0.04,-0.01,0.02,0.02,0.0,0.0,0.0,0.02,0.0,0.0,0.0,0.02,-0.852279296875,-0.948041015625,9.78225109375,0.04,0.0,0.0,0.0,0.04,0.0,0.0,0.0,0.04
1575431733171698925,21599,1570162026247457027,base_imu_link,-0.0346806494567,0.0599094020984,-0.306003741428,0.949510308699,0.0025,0.0,0.0,0.0,0.0025,0.0,0.0,0.0,0.0025,-0.03,-0.01,0.03,0.02,0.0,0.0,0.0,0.02,0.0,0.0,0.0,0.02,-0.737365234375,-1.07751085937,9.69606554687,0.04,0.0,0.0,0.0,0.04,0.0,0.0,0.0,0.04
1575431733171703363,21600,1570162026267290115,base_imu_link,-0.0352727556314,0.0591950514982,-0.3062039154,0.949468767671,0.0025,0.0,0.0,0.0,0.0025,0.0,0.0,0.0,0.0025,-0.03,-0.01,0.03,0.02,0.0,0.0,0.0,0.02,0.0,0.0,0.0,0.02,-0.81895421875,-1.11581554687,9.52829101562,0.04,0.0,0.0,0.0,0.04,0.0,0.0,0.0,0.04
1575431733171707069,21601,1570162026287405014,base_imu_link,-0.0359186057053,0.0591433149399,-0.306432977482,0.949373873863,0.0025,0.0,0.0,0.0,0.0025,0.0,0.0,0.0,0.0025,-0.03,0.0,0.03,0.02,0.0,0.0,0.0,0.02,0.0,0.0,0.0,0.02,-0.866835078125,-0.9576171875,9.68150976562,0.04,0.0,0.0,0.0,0.04,0.0,0.0,0.0,0.04
1575431733197575001,21602,1570162026307459115,base_imu_link,-0.035607814929,0.059023920175,-0.306122186706,0.949493268628,0.0025,0.0,0.0,0.0,0.0025,0.0,0.0,0.0,0.0025,-0.03,0.01,0.03,0.02,0.0,0.0,0.0,0.02,0.0,0.0,0.0,0.02,-0.953020625,-0.9193125,9.73437023437,0.04,0.0,0.0,0.0,0.04,0.0,0.0,0.0,0.04
1575431733209429756,21603,1570162026327366113,base_imu_link,-0.0349699590693,0.0592803464397,-0.306208385923,0.949473204929,0.0025,0.0,0.0,0.0,0.0025,0.0,0.0,0.0,0.0025,-0.04,0.01,0.03,0.02,0.0,0.0,0.0,0.02,0.0,0.0,0.0,0.02,-1.05835851562,-0.948041015625,9.79642382812,0.04,0.0,0.0,0.0,0.04,0.0,0.0,0.0,0.04
1575431733227422062,21604,1570162026347285985,base_imu_link,-0.0344512072533,0.0599597820373,-0.306588652657,0.949326780892,0.0025,0.0,0.0,0.0,0.0025,0.0,0.0,0.0,0.0025,-0.04,-0.0,0.03,0.02,0.0,0.0,0.0,0.02,0.0,0.0,0.0,0.02,-1.05835851562,-1.08210742187,9.64320507812,0.04,0.0,0.0,0.0,0.04,0.0,0.0,0.0,0.04
1575431733248205015,21605,1570162026367501020,base_imu_link,-0.0346528999653,0.060819814613,-0.306015355436,0.949449697937,0.0025,0.0,0.0,0.0,0.0025,0.0,0.0,0.0,0.0025,-0.04,-0.01,0.02,0.02,0.0,0.0,0.0,0.02,0.0,0.0,0.0,0.02,-0.928888671875,-1.07253125,9.77267492187,0.04,0.0,0.0,0.0,0.04,0.0,0.0,0.0,0.04
1575431733270340522,21606,1570162026387320995,base_imu_link,-0.0350114298109,0.0608439089319,-0.305999701007,0.949440046297,0.0025,0.0,0.0,0.0,0.0025,0.0,0.0,0.0,0.0025,-0.04,-0.01,0.03,0.02,0.0,0.0,0.0,0.02,0.0,0.0,0.0,0.02,-0.9147159375,-1.02005382812,9.61945617187,0.04,0.0,0.0,0.0,0.04,0.0,0.0,0.0,0.04
1575431733291008514,21607,1570162026407301902,base_imu_link,-0.0350120256377,0.0607764696479,-0.306419536328,0.949308931041,0.0025,0.0,0.0,0.0,0.0025,0.0,0.0,0.0,0.0025,-0.03,-0.0,0.03,0.02,0.0,0.0,0.0,0.02,0.0,0.0,0.0,0.02,-0.86185546875,-0.93386828125,9.76309875,0.04,0.0,0.0,0.0,0.04,0.0,0.0,0.0,0.04
1575431733314754961,21608,1570162026427247047,base_imu_link,-0.0346016682891,0.0603648592465,-0.306385105917,0.949361351221,0.0025,0.0,0.0,0.0,0.0025,0.0,0.0,0.0,0.0025,-0.03,-0.0,0.03,0.02,0.0,0.0,0.0,0.02,0.0,0.0,0.0,0.02,-0.828530390625,-1.07751085937,9.67691320312,0.04,0.0,0.0,0.0,0.04,0.0,0.0,0.0,0.04
1575431733327370054,21609,1570162026447276115,base_imu_link,-0.0350981992551,0.060182997415,-0.306795234426,0.949222211795,0.0025,0.0,0.0,0.0,0.0025,0.0,0.0,0.0,0.0025,-0.03,0.01,0.03,0.02,0.0,0.0,0.0,0.02,0.0,0.0,0.0,0.02,-0.842703125,-0.948041015625,9.39422460937,0.04,0.0,0.0,0.0,0.04,0.0,0.0,0.0,0.04
1575431733348125883,21610,1570162026467282056,base_imu_link,-0.0350182670588,0.0599457113256,-0.306319779197,0.949393714714,0.0025,0.0,0.0,0.0,0.0025,0.0,0.0,0.0,0.0025,-0.03,0.0,0.03,0.02,0.0,0.0,0.0,0.02,0.0,0.0,0.0,0.02,-0.962596796875,-1.02963,9.63860851562,0.04,0.0,0.0,0.0,0.04,0.0,0.0,0.0,0.04
1575431733368287667,21611,1570162026487330913,base_imu_link,-0.0350920597072,0.0602534559887,-0.306458305146,0.949326801262,0.0025,0.0,0.0,0.0,0.0025,0.0,0.0,0.0,0.0025,-0.04,-0.01,0.02,0.02,0.0,0.0,0.0,0.02,0.0,0.0,0.0,0.02,-1.06295507812,-0.981749140625,9.7676953125,0.04,0.0,0.0,0.0,0.04,0.0,0.0,0.0,0.04
1575431733401468878,21612,1570162026507210016,base_imu_link,-0.0346932676044,0.0608707545607,-0.306672810933,0.949232803614,0.0025,0.0,0.0,0.0,0.0025,0.0,0.0,0.0,0.0025,-0.04,-0.01,0.02,0.02,0.0,0.0,0.0,0.02,0.0,0.0,0.0,0.02,-0.9576171875,-1.03920617187,9.78225109375,0.04,0.0,0.0,0.0,0.04,0.0,0.0,0.0,0.04
1575431733437626242,21613,1570162026527218103,base_imu_link,-0.0347648979848,0.0609711202888,-0.306413396187,0.949307513399,0.0025,0.0,0.0,0.0,0.0025,0.0,0.0,0.0,0.0025,-0.03,-0.01,0.02,0.02,0.0,0.0,0.0,0.02,0.0,0.0,0.0,0.02,-0.852279296875,-1.09666320312,9.58574804687,0.04,0.0,0.0,0.0,0.04,0.0,0.0,0.0,0.04
1575431733437671710,21614,1570162026547225952,base_imu_link,-0.0352611796284,0.0607893702833,-0.306823409044,0.949168424114,0.0025,0.0,0.0,0.0,0.0025,0.0,0.0,0.0,0.0025,-0.03,-0.0,0.03,0.02,0.0,0.0,0.0,0.02,0.0,0.0,0.0,0.02,-0.8810078125,-1.00549804687,9.70066210937,0.04,0.0,0.0,0.0,0.04,0.0,0.0,0.0,0.04
1575431733456646601,21615,1570162026567241907,base_imu_link,-0.0351227010424,0.0606531198768,-0.30683961084,0.949177037301,0.0025,0.0,0.0,0.0,0.0025,0.0,0.0,0.0,0.0025,-0.03,0.0,0.03,0.02,0.0,0.0,0.0,0.02,0.0,0.0,0.0,0.02,-0.794822265625,-0.97676953125,9.71023828125,0.04,0.0,0.0,0.0,0.04,0.0,0.0,0.0,0.04
1575431733486111676,21616,1570162026587055921,base_imu_link,-0.0351734946197,0.0600053131462,-0.306475006758,0.949334112893,0.0025,0.0,0.0,0.0,0.0025,0.0,0.0,0.0,0.0025,-0.03,0.0,0.03,0.02,0.0,0.0,0.0,0.02,0.0,0.0,0.0,0.02,-1.08708703125,-1.01507421875,9.78684765625,0.04,0.0,0.0,0.0,0.04,0.0,0.0,0.0,0.04
1575431733518858187,21617,1570162026607270956,base_imu_link,-0.0348908345506,0.0609060176876,-0.306165126342,0.949387171857,0.0025,0.0,0.0,0.0,0.0025,0.0,0.0,0.0,0.0025,-0.04,-0.0,0.03,0.02,0.0,0.0,0.0,0.02,0.0,0.0,0.0,0.02,-0.967193359375,-0.943444453125,9.56199914062,0.04,0.0,0.0,0.0,0.04,0.0,0.0,0.0,0.04
1575431733518865188,21618,1570162026627062082,base_imu_link,-0.0345395866581,0.0610860753842,-0.306495729841,0.949281768463,0.0025,0.0,0.0,0.0,0.0025,0.0,0.0,0.0,0.0025,-0.04,-0.01,0.03,0.02,0.0,0.0,0.0,0.02,0.0,0.0,0.0,0.02,-0.905139765625,-1.09666320312,9.60030382812,0.04,0.0,0.0,0.0,0.04,0.0,0.0,0.0,0.04
1575431733576738324,21619,1570162026647042989,base_imu_link,-0.0350696130167,0.0610933828453,-0.306806273627,0.949161541192,0.0025,0.0,0.0,0.0,0.0025,0.0,0.0,0.0,0.0025,-0.04,-0.01,0.02,0.02,0.0,0.0,0.0,0.02,0.0,0.0,0.0,0.02,-0.93846484375,-1.08708703125,9.59072765625,0.04,0.0,0.0,0.0,0.04,0.0,0.0,0.0,0.04
1575431733576745487,21620,1570162026667037963,base_imu_link,-0.0353683971355,0.0612862553421,-0.306862112345,0.949119968917,0.0025,0.0,0.0,0.0,0.0025,0.0,0.0,0.0,0.0025,-0.03,-0.01,0.03,0.02,0.0,0.0,0.0,0.02,0.0,0.0,0.0,0.02,-0.871431640625,-1.00549804687,9.59072765625,0.04,0.0,0.0,0.0,0.04,0.0,0.0,0.0,0.04
1575431733626626702,21621,1570162026687077999,base_imu_link,-0.0353777953609,0.0610052251613,-0.306718705668,0.949184075768,0.0025,0.0,0.0,0.0,0.0025,0.0,0.0,0.0,0.0025,-0.03,-0.0,0.03,0.02,0.0,0.0,0.0,0.02,0.0,0.0,0.0,0.02,-0.8043984375,-0.986345703125,9.686489375,0.04,0.0,0.0,0.0,0.04,0.0,0.0,0.0,0.04
1575431733626639328,21622,1570162026707252025,base_imu_link,-0.0354121115333,0.0604338690605,-0.306183113495,0.949392242878,0.0025,0.0,0.0,0.0,0.0025,0.0,0.0,0.0,0.0025,-0.03,0.0,0.03,0.02,0.0,0.0,0.0,0.02,0.0,0.0,0.0,0.02,-0.813974609375,-1.05337890625,9.98296765625,0.04,0.0,0.0,0.0,0.04,0.0,0.0,0.0,0.04
1575431733626643430,21623,1570162026727042913,base_imu_link,-0.035548699635,0.059953067824,-0.306630906845,0.949273093783,0.0025,0.0,0.0,0.0,0.0025,0.0,0.0,0.0,0.0025,-0.03,0.01,0.03,0.02,0.0,0.0,0.0,0.02,0.0,0.0,0.0,0.02,-0.93386828125,-1.02465039062,9.68150976562,0.04,0.0,0.0,0.0,0.04,0.0,0.0,0.0,0.04
1575431733678100171,21624,1570162026747056007,base_imu_link,-0.0356034595497,0.0601297134753,-0.306200253781,0.949398870765,0.0025,0.0,0.0,0.0,0.0025,0.0,0.0,0.0,0.0025,-0.04,-0.0,0.03,0.02,0.0,0.0,0.0,0.02,0.0,0.0,0.0,0.02,-1.01507421875,-0.885987421875,9.71023828125,0.04,0.0,0.0,0.0,0.04,0.0,0.0,0.0,0.04
1575431733678115299,21625,1570162026767041921,base_imu_link,-0.0347779070336,0.0604122636459,-0.306208867173,0.94940875562,0.0025,0.0,0.0,0.0,0.0025,0.0,0.0,0.0,0.0025,-0.04,-0.01,0.02,0.02,0.0,0.0,0.0,0.02,0.0,0.0,0.0,0.02,-0.953020625,-1.0679346875,9.7676953125,0.04,0.0,0.0,0.0,0.04,0.0,0.0,0.0,0.04
1575431733678118917,21626,1570162026787038087,base_imu_link,-0.0349676139503,0.0605934632614,-0.306684523748,0.949236693917,0.0025,0.0,0.0,0.0,0.0025,0.0,0.0,0.0,0.0025,-0.03,-0.01,0.03,0.02,0.0,0.0,0.0,0.02,0.0,0.0,0.0,0.02,-0.905139765625,-1.06295507812,9.82515234375,0.04,0.0,0.0,0.0,0.04,0.0,0.0,0.0,0.04
1575431733728156394,21627,1570162026807013988,base_imu_link,-0.0352298385166,0.0604570002943,-0.306022363017,0.949449378812,0.0025,0.0,0.0,0.0,0.0025,0.0,0.0,0.0,0.0025,-0.03,-0.01,0.03,0.02,0.0,0.0,0.0,0.02,0.0,0.0,0.0,0.02,-0.871431640625,-0.9576171875,9.729390625,0.04,0.0,0.0,0.0,0.04,0.0,0.0,0.0,0.04
1575431733731918740,21628,1570162026826761960,base_imu_link,-0.0349849877287,0.0600989433555,-0.305977258971,0.949495700166,0.0025,0.0,0.0,0.0,0.0025,0.0,0.0,0.0,0.0025,-0.03,-0.0,0.03,0.02,0.0,0.0,0.0,0.02,0.0,0.0,0.0,0.02,-0.93846484375,-0.986345703125,9.7676953125,0.04,0.0,0.0,0.0,0.04,0.0,0.0,0.0,0.04
1575431733758450317,21629,1570162026847471952,base_imu_link,-0.0347379649304,0.06029372785,-0.305971118426,0.949494399596,0.0025,0.0,0.0,0.0,0.0025,0.0,0.0,0.0,0.0025,-0.03,0.01,0.03,0.02,0.0,0.0,0.0,0.02,0.0,0.0,0.0,0.02,-0.885987421875,-1.00549804687,9.67691320312,0.04,0.0,0.0,0.0,0.04,0.0,0.0,0.0,0.04
1575431733758463650,21630,1570162026866759061,base_imu_link,-0.034660364939,0.0602640021453,-0.305893518434,0.9495241253,0.0025,0.0,0.0,0.0,0.0025,0.0,0.0,0.0,0.0025,-0.03,0.01,0.03,0.02,0.0,0.0,0.0,0.02,0.0,0.0,0.0,0.02,-0.93846484375,-1.04380273437,9.63860851562,0.04,0.0,0.0,0.0,0.04,0.0,0.0,0.0,0.04
1575431733851936152,21631,1570162026886734962,base_imu_link,-0.0349323354994,0.0605392826397,-0.305944184693,0.949480322622,0.0025,0.0,0.0,0.0,0.0025,0.0,0.0,0.0,0.0025,-0.04,-0.0,0.03,0.02,0.0,0.0,0.0,0.02,0.0,0.0,0.0,0.02,-0.948041015625,-0.967193359375,9.61945617187,0.04,0.0,0.0,0.0,0.04,0.0,0.0,0.0,0.04
1575431733851941251,21632,1570162026906840085,base_imu_link,-0.03473951678,0.0605686115671,-0.305949187882,0.949483914398,0.0025,0.0,0.0,0.0,0.0025,0.0,0.0,0.0,0.0025,-0.04,-0.01,0.02,0.02,0.0,0.0,0.0,0.02,0.0,0.0,0.0,0.02,-1.04380273437,-1.01047765625,9.55701953125,0.04,0.0,0.0,0.0,0.04,0.0,0.0,0.0,0.04
1575431733851953269,21633,1570162026926817893,base_imu_link,-0.0346433239623,0.0611683388966,-0.305739160335,0.949516635062,0.0025,0.0,0.0,0.0,0.0025,0.0,0.0,0.0,0.0025,-0.04,-0.01,0.03,0.02,0.0,0.0,0.0,0.02,0.0,0.0,0.0,0.02,-0.87641125,-1.19702148438,9.71521789062,0.04,0.0,0.0,0.0,0.04,0.0,0.0,0.0,0.04
1575431733851959731,21634,1570162026946774005,base_imu_link,-0.0356524775384,0.0611371287043,-0.305868644226,0.949439584607,0.0025,0.0,0.0,0.0,0.0025,0.0,0.0,0.0,0.0025,-0.03,-0.01,0.03,0.02,0.0,0.0,0.0,0.02,0.0,0.0,0.0,0.02,-0.905139765625,-1.03920617187,9.65278125,0.04,0.0,0.0,0.0,0.04,0.0,0.0,0.0,0.04
1575431734035750320,21635,1570162026966782093,base_imu_link,-0.0356364706539,0.0611464604058,-0.306117196443,0.949359475847,0.0025,0.0,0.0,0.0,0.0025,0.0,0.0,0.0,0.0025,-0.03,0.0,0.03,0.02,0.0,0.0,0.0,0.02,0.0,0.0,0.0,0.02,-0.771073359375,-1.01047765625,9.62903234375,0.04,0.0,0.0,0.0,0.04,0.0,0.0,0.0,0.04
1575431734035821505,21636,1570162026986814022,base_imu_link,-0.035775911158,0.0604549050802,-0.306084778023,0.949408972622,0.0025,0.0,0.0,0.0,0.0025,0.0,0.0,0.0,0.0025,-0.03,0.01,0.03,0.02,0.0,0.0,0.0,0.02,0.0,0.0,0.0,0.02,-0.852279296875,-0.97217296875,9.63860851562,0.04,0.0,0.0,0.0,0.04,0.0,0.0,0.0,0.04
1575431734035869527,21637,1570162027007164001,base_imu_link,-0.0356486715194,0.0602453759613,-0.306355093494,0.949339888335,0.0025,0.0,0.0,0.0,0.0025,0.0,0.0,0.0,0.0025,-0.04,0.0,0.03,0.02,0.0,0.0,0.0,0.02,0.0,0.0,0.0,0.02,-0.9913253125,-0.986345703125,9.729390625,0.04,0.0,0.0,0.0,0.04,0.0,0.0,0.0,0.04
1575431734035892804,21638,1570162027026748895,base_imu_link,-0.035347284202,0.0606054749032,-0.306337600976,0.94933388233,0.0025,0.0,0.0,0.0,0.0025,0.0,0.0,0.0,0.0025,-0.04,-0.0,0.03,0.02,0.0,0.0,0.0,0.02,0.0,0.0,0.0,0.02,-1.04878234375,-0.943444453125,9.81557617187,0.04,0.0,0.0,0.0,0.04,0.0,0.0,0.0,0.04
1575431734035913108,21639,1570162027046827077,base_imu_link,-0.0347968176217,0.0609529090738,-0.305916297955,0.949467820942,0.0025,0.0,0.0,0.0,0.0025,0.0,0.0,0.0,0.0025,-0.04,-0.01,0.02,0.02,0.0,0.0,0.0,0.02,0.0,0.0,0.0,0.02,-0.962596796875,-1.05835851562,9.729390625,0.04,0.0,0.0,0.0,0.04,0.0,0.0,0.0,0.04
1575431734038781043,21640,1570162027066751956,base_imu_link,-0.0348709463949,0.0611930588531,-0.306474388106,0.94926965404,0.0025,0.0,0.0,0.0,0.0025,0.0,0.0,0.0,0.0025,-0.03,-0.01,0.03,0.02,0.0,0.0,0.0,0.02,0.0,0.0,0.0,0.02,-0.943444453125,-1.02465039062,9.68150976562,0.04,0.0,0.0,0.0,0.04,0.0,0.0,0.0,0.04
1575431734038794434,21641,1570162027086781978,base_imu_link,-0.0348816260673,0.0611869717928,-0.30630870463,0.949323129453,0.0025,0.0,0.0,0.0,0.0025,0.0,0.0,0.0,0.0025,-0.03,-0.01,0.03,0.02,0.0,0.0,0.0,0.02,0.0,0.0,0.0,0.02,-0.741961796875,-1.09168359375,9.76309875,0.04,0.0,0.0,0.0,0.04,0.0,0.0,0.0,0.04
1575431734038814029,21642,1570162027106786012,base_imu_link,-0.0355115479519,0.0603840691726,-0.306349141229,0.949338136714,0.0025,0.0,0.0,0.0,0.0025,0.0,0.0,0.0,0.0025,-0.03,0.0,0.03,0.02,0.0,0.0,0.0,0.02,0.0,0.0,0.0,0.02,-0.9193125,-0.953020625,9.70564171875,0.04,0.0,0.0,0.0,0.04,0.0,0.0,0.0,0.04
1575431734043020411,21643,1570162027126754045,base_imu_link,-0.0350483129795,0.0604127660927,-0.306281466475,0.949375361353,0.0025,0.0,0.0,0.0,0.0025,0.0,0.0,0.0,0.0025,-0.03,0.01,0.03,0.02,0.0,0.0,0.0,0.02,0.0,0.0,0.0,0.02,-0.962596796875,-1.04380273437,9.65776085937,0.04,0.0,0.0,0.0,0.04,0.0,0.0,0.0,0.04
1575431734043083980,21644,1570162027146639108,base_imu_link,-0.0352307815116,0.0607992275177,-0.305580384621,0.949569836559,0.0025,0.0,0.0,0.0,0.0025,0.0,0.0,0.0,0.0025,-0.04,0.0,0.03,0.02,0.0,0.0,0.0,0.02,0.0,0.0,0.0,0.02,-0.847682734375,-1.09168359375,9.79182726562,0.04,0.0,0.0,0.0,0.04,0.0,0.0,0.0,0.04
1575431734072194847,21645,1570162027166603088,base_imu_link,-0.0356765019374,0.0605046875275,-0.305918723091,0.949463061345,0.0025,0.0,0.0,0.0,0.0025,0.0,0.0,0.0,0.0025,-0.04,-0.0,0.03,0.02,0.0,0.0,0.0,0.02,0.0,0.0,0.0,0.02,-1.01047765625,-0.9913253125,9.65776085937,0.04,0.0,0.0,0.0,0.04,0.0,0.0,0.0,0.04
1575431734090657635,21646,1570162027186559915,base_imu_link,-0.0353540204514,0.0608772570256,-0.306232614482,0.949350113837,0.0025,0.0,0.0,0.0,0.0025,0.0,0.0,0.0,0.0025,-0.04,-0.01,0.02,0.02,0.0,0.0,0.0,0.02,0.0,0.0,0.0,0.02,-0.967193359375,-1.09666320312,9.93049023437,0.04,0.0,0.0,0.0,0.04,0.0,0.0,0.0,0.04
1575431734090661485,21647,1570162027206582069,base_imu_link,-0.0355754241111,0.0610401378644,-0.306211023176,0.949338348564,0.0025,0.0,0.0,0.0,0.0025,0.0,0.0,0.0,0.0025,-0.03,-0.01,0.02,0.02,0.0,0.0,0.0,0.02,0.0,0.0,0.0,0.02,-0.813974609375,-0.986345703125,9.5715753125,0.04,0.0,0.0,0.0,0.04,0.0,0.0,0.0,0.04
1575431734108860472,21648,1570162027226535081,base_imu_link,-0.0355943931975,0.0604108029485,-0.306343870559,0.949335034132,0.0025,0.0,0.0,0.0,0.0025,0.0,0.0,0.0,0.0025,-0.03,-0.01,0.03,0.02,0.0,0.0,0.0,0.02,0.0,0.0,0.0,0.02,-0.97676953125,-1.04380273437,9.74394640625,0.04,0.0,0.0,0.0,0.04,0.0,0.0,0.0,0.04
1575431734208830266,21649,1570162027246423959,base_imu_link,-0.0354805324585,0.0607447478893,-0.306404239782,0.949298503772,0.0025,0.0,0.0,0.0,0.0025,0.0,0.0,0.0,0.0025,-0.03,-0.0,0.03,0.02,0.0,0.0,0.0,0.02,0.0,0.0,0.0,0.02,-0.847682734375,-1.04380273437,9.73437023437,0.04,0.0,0.0,0.0,0.04,0.0,0.0,0.0,0.04
1575431734208850786,21650,1570162027266549110,base_imu_link,-0.0356870614541,0.0604984598817,-0.305753005867,0.949516439773,0.0025,0.0,0.0,0.0,0.0025,0.0,0.0,0.0,0.0025,-0.03,0.0,0.03,0.02,0.0,0.0,0.0,0.02,0.0,0.0,0.0,0.02,-0.871431640625,-0.986345703125,9.75352257812,0.04,0.0,0.0,0.0,0.04,0.0,0.0,0.0,0.04
1575431734208871210,21651,1570162027286637067,base_imu_link,-0.0354979122873,0.0602498531613,-0.305697166251,0.949557315786,0.0025,0.0,0.0,0.0,0.0025,0.0,0.0,0.0,0.0025,-0.03,0.01,0.03,0.02,0.0,0.0,0.0,0.02,0.0,0.0,0.0,0.02,-1.07253125,-1.00090148437,9.78225109375,0.04,0.0,0.0,0.0,0.04,0.0,0.0,0.0,0.04
1575431734208875762,21652,1570162027306433916,base_imu_link,-0.0351340601514,0.0609892356995,-0.306232018386,0.949351284753,0.0025,0.0,0.0,0.0,0.0025,0.0,0.0,0.0,0.0025,-0.04,-0.0,0.02,0.02,0.0,0.0,0.0,0.02,0.0,0.0,0.0,0.02,-0.986345703125,-1.07253125,9.729390625,0.04,0.0,0.0,0.0,0.04,0.0,0.0,0.0,0.04
1575431734273225357,21653,1570162027326558113,base_imu_link,-0.0352958430905,0.0613206183496,-0.306281977619,0.949307819104,0.0025,0.0,0.0,0.0,0.0025,0.0,0.0,0.0,0.0025,-0.04,-0.01,0.02,0.02,0.0,0.0,0.0,0.02,0.0,0.0,0.0,0.02,-0.928888671875,-0.924292109375,9.50913867187,0.04,0.0,0.0,0.0,0.04,0.0,0.0,0.0,0.04
1575431734273238400,21654,1570162027346328020,base_imu_link,-0.034948443098,0.0612228536159,-0.306551884809,0.949239859277,0.0025,0.0,0.0,0.0,0.0025,0.0,0.0,0.0,0.0025,-0.03,-0.01,0.03,0.02,0.0,0.0,0.0,0.02,0.0,0.0,0.0,0.02,-0.828530390625,-1.08708703125,9.81557617187,0.04,0.0,0.0,0.0,0.04,0.0,0.0,0.0,0.04
1575431734273487813,21655,1570162027366395950,base_imu_link,-0.0354188828276,0.0607056490201,-0.306078152165,0.949408495687,0.0025,0.0,0.0,0.0,0.0025,0.0,0.0,0.0,0.0025,-0.03,-0.01,0.03,0.02,0.0,0.0,0.0,0.02,0.0,0.0,0.0,0.02,-0.86185546875,-0.948041015625,9.67193359375,0.04,0.0,0.0,0.0,0.04,0.0,0.0,0.0,0.04
1575431734273521488,21656,1570162027386323928,base_imu_link,-0.0350859733612,0.0603239257129,-0.306121337899,0.949431263938,0.0025,0.0,0.0,0.0,0.0025,0.0,0.0,0.0,0.0025,-0.03,-0.0,0.03,0.02,0.0,0.0,0.0,0.02,0.0,0.0,0.0,0.02,-0.885987421875,-1.12998828125,9.65776085937,0.04,0.0,0.0,0.0,0.04,0.0,0.0,0.0,0.04
1575431734297012145,21657,1570162027406303882,base_imu_link,-0.0356448168681,0.0605233594055,-0.30641581883,0.949302752533,0.0025,0.0,0.0,0.0,0.0025,0.0,0.0,0.0,0.0025,-0.03,0.01,0.03,0.02,0.0,0.0,0.0,0.02,0.0,0.0,0.0,0.02,-0.85725890625,-0.928888671875,9.68150976562,0.04,0.0,0.0,0.0,0.04,0.0,0.0,0.0,0.04
1575431734314213295,21658,1570162027426558971,base_imu_link,-0.0353269294615,0.0601995811086,-0.305790541062,0.949536815235,0.0025,0.0,0.0,0.0,0.0025,0.0,0.0,0.0,0.0025,-0.03,0.0,0.03,0.02,0.0,0.0,0.0,0.02,0.0,0.0,0.0,0.02,-0.909736328125,-0.967193359375,9.60988,0.04,0.0,0.0,0.0,0.04,0.0,0.0,0.0,0.04
1575431734343953115,21659,1570162027446371078,base_imu_link,-0.0351454560407,0.0601554127946,-0.306049622498,0.94946287542,0.0025,0.0,0.0,0.0,0.0025,0.0,0.0,0.0,0.0025,-0.04,-0.0,0.02,0.02,0.0,0.0,0.0,0.02,0.0,0.0,0.0,0.02,-1.07253125,-0.995921875,9.79642382812,0.04,0.0,0.0,0.0,0.04,0.0,0.0,0.0,0.04
1575431734349231944,21660,1570162027466279029,base_imu_link,-0.034714513392,0.0608586406176,-0.3063414475,0.949339794787,0.0025,0.0,0.0,0.0,0.0025,0.0,0.0,0.0,0.0025,-0.04,-0.01,0.02,0.02,0.0,0.0,0.0,0.02,0.0,0.0,0.0,0.02,-0.909736328125,-1.00549804687,9.79642382812,0.04,0.0,0.0,0.0,0.04,0.0,0.0,0.0,0.04
1575431734367593381,21661,1570162027486334085,base_imu_link,-0.0348170866791,0.0605983490346,-0.306026757781,0.949454176931,0.0025,0.0,0.0,0.0,0.0025,0.0,0.0,0.0,0.0025,-0.03,-0.01,0.03,0.02,0.0,0.0,0.0,0.02,0.0,0.0,0.0,0.02,-0.8043984375,-1.08210742187,9.60988,0.04,0.0,0.0,0.0,0.04,0.0,0.0,0.0,0.04
1575431734393388430,21662,1570162027506381034,base_imu_link,-0.0353321827315,0.0601964980232,-0.305707677178,0.949563496878,0.0025,0.0,0.0,0.0,0.0025,0.0,0.0,0.0,0.0025,-0.03,-0.01,0.03,0.02,0.0,0.0,0.0,0.02,0.0,0.0,0.0,0.02,-0.8810078125,-1.0679346875,9.78225109375,0.04,0.0,0.0,0.0,0.04,0.0,0.0,0.0,0.04
1575431734444490849,21663,1570162027526194095,base_imu_link,-0.0355363424423,0.0600936909002,-0.305956936576,0.949482106014,0.0025,0.0,0.0,0.0,0.0025,0.0,0.0,0.0,0.0025,-0.03,-0.0,0.03,0.02,0.0,0.0,0.0,0.02,0.0,0.0,0.0,0.02,-0.775669921875,-1.04380273437,9.61945617187,0.04,0.0,0.0,0.0,0.04,0.0,0.0,0.0,0.04
1575431734444675753,21664,1570162027546243906,base_imu_link,-0.035781809243,0.0596240218296,-0.305985240481,0.949493375836,0.0025,0.0,0.0,0.0,0.0025,0.0,0.0,0.0,0.0025,-0.03,0.01,0.03,0.02,0.0,0.0,0.0,0.02,0.0,0.0,0.0,0.02,-0.89556359375,-0.905139765625,9.71521789062,0.04,0.0,0.0,0.0,0.04,0.0,0.0,0.0,0.04
1575431734500404106,21665,1570162027566246032,base_imu_link,-0.0351798846956,0.0595167578115,-0.305933208678,0.949539363629,0.0025,0.0,0.0,0.0,0.0025,0.0,0.0,0.0,0.0025,-0.03,0.0,0.03,0.02,0.0,0.0,0.0,0.02,0.0,0.0,0.0,0.02,-0.9913253125,-0.8810078125,9.79182726562,0.04,0.0,0.0,0.0,0.04,0.0,0.0,0.0,0.04
1575431734500418204,21666,1570162027586285114,base_imu_link,-0.0344539525228,0.0597495620718,-0.306107774051,0.949495100384,0.0025,0.0,0.0,0.0,0.0025,0.0,0.0,0.0,0.0025,-0.04,-0.0,0.03,0.02,0.0,0.0,0.0,0.02,0.0,0.0,0.0,0.02,-0.9147159375,-1.15871679687,9.66733703125,0.04,0.0,0.0,0.0,0.04,0.0,0.0,0.0,0.04
1575431734500539869,21667,1570162027606265068,base_imu_link,-0.0352101432148,0.0599838156867,-0.305895034404,0.949521150685,0.0025,0.0,0.0,0.0,0.0025,0.0,0.0,0.0,0.0025,-0.03,-0.01,0.02,0.02,0.0,0.0,0.0,0.02,0.0,0.0,0.0,0.02,-1.04878234375,-1.08210742187,9.91133789062,0.04,0.0,0.0,0.0,0.04,0.0,0.0,0.0,0.04
1575431734508341247,21668,1570162027626215934,base_imu_link,-0.0352644390578,0.0605787416737,-0.306342888635,0.949336963348,0.0025,0.0,0.0,0.0,0.0025,0.0,0.0,0.0,0.0025,-0.03,-0.01,0.02,0.02,0.0,0.0,0.0,0.02,0.0,0.0,0.0,0.02,-0.7277890625,-0.9576171875,9.729390625,0.04,0.0,0.0,0.0,0.04,0.0,0.0,0.0,0.04
1575431734530078812,21669,1570162027646287918,base_imu_link,-0.035279461462,0.0594668791068,-0.306099276987,0.949485272406,0.0025,0.0,0.0,0.0,0.0025,0.0,0.0,0.0,0.0025,-0.03,-0.01,0.03,0.02,0.0,0.0,0.0,0.02,0.0,0.0,0.0,0.02,-0.86185546875,-0.89556359375,9.63860851562,0.04,0.0,0.0,0.0,0.04,0.0,0.0,0.0,0.04
1575431734549605382,21670,1570162027666099071,base_imu_link,-0.034726552428,0.0591971490031,-0.306141035858,0.949509046966,0.0025,0.0,0.0,0.0,0.0025,0.0,0.0,0.0,0.0025,-0.03,-0.0,0.03,0.02,0.0,0.0,0.0,0.02,0.0,0.0,0.0,0.02,-0.89556359375,-0.97676953125,9.94006640625,0.04,0.0,0.0,0.0,0.04,0.0,0.0,0.0,0.04
1575431734567849577,21671,1570162027686110019,base_imu_link,-0.0344882876912,0.0591109809982,-0.305990796309,0.949571525748,0.0025,0.0,0.0,0.0,0.0025,0.0,0.0,0.0,0.0025,-0.03,0.0,0.03,0.02,0.0,0.0,0.0,0.02,0.0,0.0,0.0,0.02,-0.833126953125,-0.9913253125,9.56659570312,0.04,0.0,0.0,0.0,0.04,0.0,0.0,0.0,0.04
1575431734588173035,21672,1570162027706058979,base_imu_link,-0.0346047456256,0.0589842864882,-0.306328024462,0.94946643277,0.0025,0.0,0.0,0.0,0.0025,0.0,0.0,0.0,0.0025,-0.04,0.01,0.03,0.02,0.0,0.0,0.0,0.02,0.0,0.0,0.0,0.02,-0.962596796875,-0.93846484375,9.71023828125,0.04,0.0,0.0,0.0,0.04,0.0,0.0,0.0,0.04
1575431734612538320,21673,1570162027726284980,base_imu_link,-0.0342735443281,0.0592200649317,-0.305907332686,0.94959939547,0.0025,0.0,0.0,0.0,0.0025,0.0,0.0,0.0,0.0025,-0.04,-0.0,0.03,0.02,0.0,0.0,0.0,0.02,0.0,0.0,0.0,0.02,-0.995921875,-1.02005382812,9.66733703125,0.04,0.0,0.0,0.0,0.04,0.0,0.0,0.0,0.04
1575431734628512363,21674,1570162027746157884,base_imu_link,-0.034276776476,0.0597698955637,-0.305864124609,0.949578748423,0.0025,0.0,0.0,0.0,0.0025,0.0,0.0,0.0,0.0025,-0.04,-0.01,0.02,0.02,0.0,0.0,0.0,0.02,0.0,0.0,0.0,0.02,-0.928888671875,-1.15412023437,9.55701953125,0.04,0.0,0.0,0.0,0.04,0.0,0.0,0.0,0.04
1575431734653635943,21675,1570162027766089916,base_imu_link,-0.0350521046678,0.0601348233599,-0.306220579288,0.949412507711,0.0025,0.0,0.0,0.0,0.0025,0.0,0.0,0.0,0.0025,-0.03,-0.01,0.03,0.02,0.0,0.0,0.0,0.02,0.0,0.0,0.0,0.02,-0.866835078125,-1.08708703125,9.6144765625,0.04,0.0,0.0,0.0,0.04,0.0,0.0,0.0,0.04
1575431734671805473,21676,1570162027786087036,base_imu_link,-0.03546396749,0.0600608021766,-0.305796458485,0.949538589542,0.0025,0.0,0.0,0.0,0.0025,0.0,0.0,0.0,0.0025,-0.03,-0.0,0.03,0.02,0.0,0.0,0.0,0.02,0.0,0.0,0.0,0.02,-0.6511796875,-0.93386828125,9.71521789062,0.04,0.0,0.0,0.0,0.04,0.0,0.0,0.0,0.04
1575431734702624857,21677,1570162027806097984,base_imu_link,-0.0354507940172,0.0586893874833,-0.305988453502,0.949562985443,0.0025,0.0,0.0,0.0,0.0025,0.0,0.0,0.0,0.0025,-0.03,0.0,0.03,0.02,0.0,0.0,0.0,0.02,0.0,0.0,0.0,0.02,-0.85725890625,-0.953020625,9.52369445312,0.04,0.0,0.0,0.0,0.04,0.0,0.0,0.0,0.04
1575431734728598124,21678,1570162027826337099,base_imu_link,-0.0352007145619,0.0586766647552,-0.30558395838,0.949703323722,0.0025,0.0,0.0,0.0,0.0025,0.0,0.0,0.0,0.0025,-0.03,0.0,0.03,0.02,0.0,0.0,0.0,0.02,0.0,0.0,0.0,0.02,-0.909736328125,-1.01507421875,9.75352257812,0.04,0.0,0.0,0.0,0.04,0.0,0.0,0.0,0.04
1575431734785083912,21679,1570162027845916986,base_imu_link,-0.035261668119,0.0587830062062,-0.305490457907,0.949724566951,0.0025,0.0,0.0,0.0,0.0025,0.0,0.0,0.0,0.0025,-0.04,-0.0,0.03,0.02,0.0,0.0,0.0,0.02,0.0,0.0,0.0,0.02,-0.8810078125,-1.00090148437,9.63860851562,0.04,0.0,0.0,0.0,0.04,0.0,0.0,0.0,0.04
1575431734785105551,21680,1570162027866167068,base_imu_link,-0.0352257530471,0.0588045353646,-0.306070554597,0.949537776264,0.0025,0.0,0.0,0.0,0.0025,0.0,0.0,0.0,0.0025,-0.04,-0.01,0.02,0.02,0.0,0.0,0.0,0.02,0.0,0.0,0.0,0.02,-1.02005382812,-1.01047765625,9.75352257812,0.04,0.0,0.0,0.0,0.04,0.0,0.0,0.0,0.04
1575431734785113114,21681,1570162027886054039,base_imu_link,-0.0350671563499,0.0593653302373,-0.305534764642,0.949681293754,0.0025,0.0,0.0,0.0,0.0025,0.0,0.0,0.0,0.0025,-0.03,-0.01,0.03,0.02,0.0,0.0,0.0,0.02,0.0,0.0,0.0,0.02,-0.905139765625,-0.93386828125,9.8872059375,0.04,0.0,0.0,0.0,0.04,0.0,0.0,0.0,0.04
1575431734826011598,21682,1570162027906069993,base_imu_link,-0.0346643442666,0.0591583363981,-0.305814739734,0.949618881148,0.0025,0.0,0.0,0.0,0.0025,0.0,0.0,0.0,0.0025,-0.03,-0.01,0.03,0.02,0.0,0.0,0.0,0.02,0.0,0.0,0.0,0.02,-0.890583984375,-1.09168359375,9.5378671875,0.04,0.0,0.0,0.0,0.04,0.0,0.0,0.0,0.04
1575431734826218786,21683,1570162027926026105,base_imu_link,-0.0351292976858,0.0594042590063,-0.305861064494,0.949571522152,0.0025,0.0,0.0,0.0,0.0025,0.0,0.0,0.0,0.0025,-0.03,-0.0,0.03,0.02,0.0,0.0,0.0,0.02,0.0,0.0,0.0,0.02,-0.885987421875,-0.948041015625,9.70066210937,0.04,0.0,0.0,0.0,0.04,0.0,0.0,0.0,0.04
1575431734845274006,21684,1570162027945852994,base_imu_link,-0.0348340488419,0.0592762218882,-0.305301657134,0.949770402103,0.0025,0.0,0.0,0.0,0.0025,0.0,0.0,0.0,0.0025,-0.03,0.0,0.03,0.02,0.0,0.0,0.0,0.02,0.0,0.0,0.0,0.02,-0.924292109375,-1.01047765625,9.71023828125,0.04,0.0,0.0,0.0,0.04,0.0,0.0,0.0,0.04
1575431734874756614,21685,1570162027965881109,base_imu_link,-0.0347955425434,0.0594326266289,-0.305042001933,0.949845466467,0.0025,0.0,0.0,0.0,0.0025,0.0,0.0,0.0,0.0025,-0.03,0.0,0.03,0.02,0.0,0.0,0.0,0.02,0.0,0.0,0.0,0.02,-1.02005382812,-1.01507421875,9.59532421875,0.04,0.0,0.0,0.0,0.04,0.0,0.0,0.0,0.04
1575431734874768543,21686,1570162027985874891,base_imu_link,-0.0347294650992,0.0601570391716,-0.305236085927,0.949739925843,0.0025,0.0,0.0,0.0,0.0025,0.0,0.0,0.0,0.0025,-0.04,-0.0,0.03,0.02,0.0,0.0,0.0,0.02,0.0,0.0,0.0,0.02,-0.948041015625,-1.01047765625,9.73437023437,0.04,0.0,0.0,0.0,0.04,0.0,0.0,0.0,0.04
1575431734921319524,21687,1570162028005767107,base_imu_link,-0.0346648632378,0.0603285913721,-0.305390769222,0.949681676349,0.0025,0.0,0.0,0.0,0.0025,0.0,0.0,0.0,0.0025,-0.04,-0.01,0.03,0.02,0.0,0.0,0.0,0.02,0.0,0.0,0.0,0.02,-0.928888671875,-1.10125976562,9.65278125,0.04,0.0,0.0,0.0,0.04,0.0,0.0,0.0,0.04
1575431734921330457,21688,1570162028025830984,base_imu_link,-0.0351409940199,0.0605007555346,-0.305690615835,0.949556747388,0.0025,0.0,0.0,0.0,0.0025,0.0,0.0,0.0,0.0025,-0.03,-0.01,0.03,0.02,0.0,0.0,0.0,0.02,0.0,0.0,0.0,0.02,-0.8381065625,-1.106239375,9.7247940625,0.04,0.0,0.0,0.0,0.04,0.0,0.0,0.0,0.04
1575431734983284880,21689,1570162028045725107,base_imu_link,-0.0356907220354,0.0602204738142,-0.30569225462,0.949553533172,0.0025,0.0,0.0,0.0,0.0025,0.0,0.0,0.0,0.0025,-0.03,-0.01,0.03,0.02,0.0,0.0,0.0,0.02,0.0,0.0,0.0,0.02,-0.828530390625,-1.02005382812,9.69606554687,0.04,0.0,0.0,0.0,0.04,0.0,0.0,0.0,0.04
1575431734983294268,21690,1570162028065849065,base_imu_link,-0.0357370731583,0.0598503888245,-0.305388411172,0.949672949431,0.0025,0.0,0.0,0.0,0.0025,0.0,0.0,0.0,0.0025,-0.03,-0.0,0.03,0.02,0.0,0.0,0.0,0.02,0.0,0.0,0.0,0.02,-0.833126953125,-1.08210742187,9.45666125,0.04,0.0,0.0,0.0,0.04,0.0,0.0,0.0,0.04
1575431734983331749,21691,1570162028085786104,base_imu_link,-0.0361846635134,0.0598307831223,-0.30570499112,0.949555372752,0.0025,0.0,0.0,0.0,0.0025,0.0,0.0,0.0,0.0025,-0.03,0.01,0.03,0.02,0.0,0.0,0.0,0.02,0.0,0.0,0.0,0.02,-0.75153796875,-1.04380273437,9.55242296875,0.04,0.0,0.0,0.0,0.04,0.0,0.0,0.0,0.04
1575431735070360078,21692,1570162028105768918,base_imu_link,-0.0365284175441,0.0593781724521,-0.30547971737,0.949643116978,0.0025,0.0,0.0,0.0,0.0025,0.0,0.0,0.0,0.0025,-0.04,0.01,0.03,0.02,0.0,0.0,0.0,0.02,0.0,0.0,0.0,0.02,-0.97676953125,-0.995921875,9.59072765625,0.04,0.0,0.0,0.0,0.04,0.0,0.0,0.0,0.04
1575431735070413550,21693,1570162028125822067,base_imu_link,-0.0362779742592,0.0598511298983,-0.305534035955,0.949605551641,0.0025,0.0,0.0,0.0,0.0025,0.0,0.0,0.0,0.0025,-0.04,-0.0,0.03,0.02,0.0,0.0,0.0,0.02,0.0,0.0,0.0,0.02,-0.953020625,-1.01507421875,9.85847742187,0.04,0.0,0.0,0.0,0.04,0.0,0.0,0.0,0.04
1575431735070421680,21694,1570162028145889043,base_imu_link,-0.0360485847782,0.05990257389,-0.306118887795,0.949422670739,0.0025,0.0,0.0,0.0,0.0025,0.0,0.0,0.0,0.0025,-0.04,-0.01,0.02,0.02,0.0,0.0,0.0,0.02,0.0,0.0,0.0,0.02,-0.93846484375,-0.909736328125,9.59072765625,0.04,0.0,0.0,0.0,0.04,0.0,0.0,0.0,0.04
1575431735070426307,21695,1570162028165744066,base_imu_link,-0.0354962887459,0.0599749721023,-0.305719176739,0.949567691732,0.0025,0.0,0.0,0.0,0.0025,0.0,0.0,0.0,0.0025,-0.03,-0.01,0.03,0.02,0.0,0.0,0.0,0.02,0.0,0.0,0.0,0.02,-0.885987421875,-1.1108359375,9.73896679687,0.04,0.0,0.0,0.0,0.04,0.0,0.0,0.0,0.04
1575431735127977535,21696,1570162028185774087,base_imu_link,-0.0359647739014,0.0599428949977,-0.305704208419,0.949556907896,0.0025,0.0,0.0,0.0,0.0025,0.0,0.0,0.0,0.0025,-0.03,-0.01,0.03,0.02,0.0,0.0,0.0,0.02,0.0,0.0,0.0,0.02,-0.871431640625,-0.9913253125,9.60030382812,0.04,0.0,0.0,0.0,0.04,0.0,0.0,0.0,0.04
1575431735127995620,21697,1570162028205600976,base_imu_link,-0.0358209050576,0.0598099298901,-0.305803126802,0.949538878975,0.0025,0.0,0.0,0.0,0.0025,0.0,0.0,0.0,0.0025,-0.03,-0.0,0.03,0.02,0.0,0.0,0.0,0.02,0.0,0.0,0.0,0.02,-0.847682734375,-0.981749140625,9.59072765625,0.04,0.0,0.0,0.0,0.04,0.0,0.0,0.0,0.04
1575431735128000345,21698,1570162028225614070,base_imu_link,-0.0356926796612,0.0596675936224,-0.305653409393,0.949600865741,0.0025,0.0,0.0,0.0,0.0025,0.0,0.0,0.0,0.0025,-0.03,0.01,0.03,0.02,0.0,0.0,0.0,0.02,0.0,0.0,0.0,0.02,-0.948041015625,-0.9576171875,9.70564171875,0.04,0.0,0.0,0.0,0.04,0.0,0.0,0.0,0.04
1575431735158283503,21699,1570162028245655059,base_imu_link,-0.0352476912919,0.0598949329546,-0.305734867673,0.949576952097,0.0025,0.0,0.0,0.0,0.0025,0.0,0.0,0.0,0.0025,-0.03,0.01,0.03,0.02,0.0,0.0,0.0,0.02,0.0,0.0,0.0,0.02,-0.97217296875,-0.967193359375,9.82515234375,0.04,0.0,0.0,0.0,0.04,0.0,0.0,0.0,0.04
1575431735158418803,21700,1570162028265522956,base_imu_link,-0.0349178541444,0.0600631021593,-0.305733913754,0.949578823059,0.0025,0.0,0.0,0.0,0.0025,0.0,0.0,0.0,0.0025,-0.04,-0.0,0.03,0.02,0.0,0.0,0.0,0.02,0.0,0.0,0.0,0.02,-1.01047765625,-1.05337890625,9.54284679687,0.04,0.0,0.0,0.0,0.04,0.0,0.0,0.0,0.04
1575431735166675107,21701,1570162028285577058,base_imu_link,-0.0351027118253,0.060657032867,-0.30543084266,0.949631783555,0.0025,0.0,0.0,0.0,0.0025,0.0,0.0,0.0,0.0025,-0.04,-0.01,0.03,0.02,0.0,0.0,0.0,0.02,0.0,0.0,0.0,0.02,-0.89556359375,-1.02963,9.50454210937,0.04,0.0,0.0,0.0,0.04,0.0,0.0,0.0,0.04
1575431735190902969,21702,1570162028305527925,base_imu_link,-0.0352849318451,0.0606337605458,-0.305591588347,0.949574800528,0.0025,0.0,0.0,0.0,0.0025,0.0,0.0,0.0,0.0025,-0.03,-0.01,0.03,0.02,0.0,0.0,0.0,0.02,0.0,0.0,0.0,0.02,-0.833126953125,-0.943444453125,9.533270625,0.04,0.0,0.0,0.0,0.04,0.0,0.0,0.0,0.04
1575431735209729203,21703,1570162028325526952,base_imu_link,-0.0350407450142,0.06020837319,-0.305966452146,0.949490193814,0.0025,0.0,0.0,0.0,0.0025,0.0,0.0,0.0,0.0025,-0.03,-0.01,0.03,0.02,0.0,0.0,0.0,0.02,0.0,0.0,0.0,0.02,-0.8381065625,-1.09666320312,9.56199914062,0.04,0.0,0.0,0.0,0.04,0.0,0.0,0.0,0.04
1575431735290902801,21704,1570162028345603942,base_imu_link,-0.0355520737158,0.0600843854482,-0.30570835226,0.949562172814,0.0025,0.0,0.0,0.0,0.0025,0.0,0.0,0.0,0.0025,-0.03,0.0,0.03,0.02,0.0,0.0,0.0,0.02,0.0,0.0,0.0,0.02,-0.8381065625,-0.943444453125,9.58115148437,0.04,0.0,0.0,0.0,0.04,0.0,0.0,0.0,0.04
1575431735290918462,21705,1570162028365617036,base_imu_link,-0.0352591104812,0.0598214288727,-0.305989014795,0.949499296788,0.0025,0.0,0.0,0.0,0.0025,0.0,0.0,0.0,0.0025,-0.03,0.01,0.03,0.02,0.0,0.0,0.0,0.02,0.0,0.0,0.0,0.02,-0.909736328125,-0.995921875,9.79642382812,0.04,0.0,0.0,0.0,0.04,0.0,0.0,0.0,0.04
1575431735290922829,21706,1570162028385618925,base_imu_link,-0.035165814218,0.0598008645692,-0.306159948799,0.94944894958,0.0025,0.0,0.0,0.0,0.0025,0.0,0.0,0.0,0.0025,-0.03,0.0,0.03,0.02,0.0,0.0,0.0,0.02,0.0,0.0,0.0,0.02,-1.01047765625,-0.93386828125,9.62903234375,0.04,0.0,0.0,0.0,0.04,0.0,0.0,0.0,0.04
1575431735297538061,21707,1570162028405484914,base_imu_link,-0.034660364939,0.0602640021453,-0.305893518434,0.9495241253,0.0025,0.0,0.0,0.0,0.0025,0.0,0.0,0.0,0.0025,-0.04,-0.01,0.02,0.02,0.0,0.0,0.0,0.02,0.0,0.0,0.0,0.02,-0.986345703125,-1.02465039062,9.67691320312,0.04,0.0,0.0,0.0,0.04,0.0,0.0,0.0,0.04
1575431735342172093,21708,1570162028425458908,base_imu_link,-0.0347183722301,0.0605807342558,-0.306280601646,0.949377060141,0.0025,0.0,0.0,0.0,0.0025,0.0,0.0,0.0,0.0025,-0.04,-0.01,0.02,0.02,0.0,0.0,0.0,0.02,0.0,0.0,0.0,0.02,-0.981749140625,-1.05835851562,9.91133789062,0.04,0.0,0.0,0.0,0.04,0.0,0.0,0.0,0.04
1575431735349308517,21709,1570162028445396900,base_imu_link,-0.0347469566753,0.0607728951279,-0.306264174142,0.949369032493,0.0025,0.0,0.0,0.0,0.0025,0.0,0.0,0.0,0.0025,-0.03,-0.01,0.03,0.02,0.0,0.0,0.0,0.02,0.0,0.0,0.0,0.02,-0.86185546875,-1.02005382812,9.85388085937,0.04,0.0,0.0,0.0,0.04,0.0,0.0,0.0,0.04
1575431735368593975,21710,1570162028465351104,base_imu_link,-0.0347462704805,0.0604304650335,-0.306705934437,0.949248294897,0.0025,0.0,0.0,0.0,0.0025,0.0,0.0,0.0,0.0025,-0.03,-0.0,0.03,0.02,0.0,0.0,0.0,0.02,0.0,0.0,0.0,0.02,-0.852279296875,-0.967193359375,9.84890125,0.04,0.0,0.0,0.0,0.04,0.0,0.0,0.0,0.04
1575431735393234087,21711,1570162028485347986,base_imu_link,-0.0346064206853,0.0600193318121,-0.306743866089,0.949267231117,0.0025,0.0,0.0,0.0,0.0025,0.0,0.0,0.0,0.0025,-0.03,0.0,0.03,0.02,0.0,0.0,0.0,0.02,0.0,0.0,0.0,0.02,-0.828530390625,-0.995921875,9.686489375,0.04,0.0,0.0,0.0,0.04,0.0,0.0,0.0,0.04
1575431735393242542,21712,1570162028505357027,base_imu_link,-0.0346842917843,0.0596314731221,-0.305942638059,0.949547360343,0.0025,0.0,0.0,0.0,0.0025,0.0,0.0,0.0,0.0025,-0.03,0.0,0.03,0.02,0.0,0.0,0.0,0.02,0.0,0.0,0.0,0.02,-1.02465039062,-1.00090148437,9.729390625,0.04,0.0,0.0,0.0,0.04,0.0,0.0,0.0,0.04
1575431735417930742,21713,1570162028525285959,base_imu_link,-0.0344517612523,0.0603023666552,-0.306147082611,0.949447557547,0.0025,0.0,0.0,0.0,0.0025,0.0,0.0,0.0,0.0025,-0.04,0.0,0.03,0.02,0.0,0.0,0.0,0.02,0.0,0.0,0.0,0.02,-1.0342265625,-0.986345703125,9.63860851562,0.04,0.0,0.0,0.0,0.04,0.0,0.0,0.0,0.04
1575431735435103645,21714,1570162028545473098,base_imu_link,-0.0342406906313,0.0608933868662,-0.306439736238,0.94932305281,0.0025,0.0,0.0,0.0,0.0025,0.0,0.0,0.0,0.0025,-0.04,-0.01,0.03,0.02,0.0,0.0,0.0,0.02,0.0,0.0,0.0,0.02,-0.924292109375,-0.981749140625,9.95921875,0.04,0.0,0.0,0.0,0.04,0.0,0.0,0.0,0.04
1575431735449053459,21715,1570162028565376043,base_imu_link,-0.0341617264498,0.0605887790667,-0.306384089794,0.949363347627,0.0025,0.0,0.0,0.0,0.0025,0.0,0.0,0.0,0.0025,-0.04,-0.01,0.02,0.02,0.0,0.0,0.0,0.02,0.0,0.0,0.0,0.02,-0.905139765625,-1.02005382812,9.6481846875,0.04,0.0,0.0,0.0,0.04,0.0,0.0,0.0,0.04
1575431735467677086,21716,1570162028585366010,base_imu_link,-0.0342664294249,0.0605357895866,-0.306467175543,0.949336136628,0.0025,0.0,0.0,0.0,0.0025,0.0,0.0,0.0,0.0025,-0.03,-0.01,0.03,0.02,0.0,0.0,0.0,0.02,0.0,0.0,0.0,0.02,-0.8043984375,-1.11581554687,9.68150976562,0.04,0.0,0.0,0.0,0.04,0.0,0.0,0.0,0.04
1575431735569729720,21717,1570162028605321884,base_imu_link,-0.0349587612882,0.0601142027147,-0.306391525486,0.94936210202,0.0025,0.0,0.0,0.0,0.0025,0.0,0.0,0.0,0.0025,-0.03,-0.0,0.03,0.02,0.0,0.0,0.0,0.02,0.0,0.0,0.0,0.02,-0.905139765625,-0.986345703125,9.78684765625,0.04,0.0,0.0,0.0,0.04,0.0,0.0,0.0,0.04
1575431735569748091,21718,1570162028625335931,base_imu_link,-0.0348035478561,0.0600546529398,-0.306236312054,0.949421651795,0.0025,0.0,0.0,0.0,0.0025,0.0,0.0,0.0,0.0025,-0.03,0.0,0.03,0.02,0.0,0.0,0.0,0.02,0.0,0.0,0.0,0.02,-1.00549804687,-1.02465039062,9.68150976562,0.04,0.0,0.0,0.0,0.04,0.0,0.0,0.0,0.04
1575431735569760170,21719,1570162028645366907,base_imu_link,-0.0347124139054,0.0606513382887,-0.305943627303,0.949481416562,0.0025,0.0,0.0,0.0,0.0025,0.0,0.0,0.0,0.0025,-0.03,0.0,0.03,0.02,0.0,0.0,0.0,0.02,0.0,0.0,0.0,0.02,-0.948041015625,-0.967193359375,9.8014034375,0.04,0.0,0.0,0.0,0.04,0.0,0.0,0.0,0.04
1575431735569771529,21720,1570162028665241003,base_imu_link,-0.0344984112558,0.0606927132729,-0.306280073953,0.94937809669,0.0025,0.0,0.0,0.0,0.0025,0.0,0.0,0.0,0.0025,-0.04,-0.0,0.03,0.02,0.0,0.0,0.0,0.02,0.0,0.0,0.0,0.02,-1.05835851562,-0.97676953125,9.8443046875,0.04,0.0,0.0,0.0,0.04,0.0,0.0,0.0,0.04
1575431735635787835,21721,1570162028685309886,base_imu_link,-0.0340599397445,0.0611915487934,-0.306257193627,0.94936928864,0.0025,0.0,0.0,0.0,0.0025,0.0,0.0,0.0,0.0025,-0.04,-0.01,0.02,0.02,0.0,0.0,0.0,0.02,0.0,0.0,0.0,0.02,-1.06295507812,-0.97676953125,9.93508679687,0.04,0.0,0.0,0.0,0.04,0.0,0.0,0.0,0.04
1575431735635805402,21722,1570162028705339908,base_imu_link,-0.0337263446895,0.061569341091,-0.306737228927,0.949201781658,0.0025,0.0,0.0,0.0,0.0025,0.0,0.0,0.0,0.0025,-0.03,-0.01,0.03,0.02,0.0,0.0,0.0,0.02,0.0,0.0,0.0,0.02,-0.866835078125,-1.0679346875,9.7247940625,0.04,0.0,0.0,0.0,0.04,0.0,0.0,0.0,0.04
1575431735635850186,21723,1570162028725259065,base_imu_link,-0.0341427877142,0.0612182745423,-0.306251852491,0.949366312735,0.0025,0.0,0.0,0.0,0.0025,0.0,0.0,0.0,0.0025,-0.03,-0.01,0.03,0.02,0.0,0.0,0.0,0.02,0.0,0.0,0.0,0.02,-0.866835078125,-1.12041210937,9.68150976562,0.04,0.0,0.0,0.0,0.04,0.0,0.0,0.0,0.04
1575431735635870413,21724,1570162028745165109,base_imu_link,-0.0348419116783,0.0610684104749,-0.306071093856,0.949408856046,0.0025,0.0,0.0,0.0,0.0025,0.0,0.0,0.0,0.0025,-0.03,-0.0,0.03,0.02,0.0,0.0,0.0,0.02,0.0,0.0,0.0,0.02,-0.871431640625,-1.02465039062,9.90635828125,0.04,0.0,0.0,0.0,0.04,0.0,0.0,0.0,0.04
1575431735647942688,21725,1570162028765155076,base_imu_link,-0.0348032724658,0.0608148130686,-0.306673079435,0.949232275624,0.0025,0.0,0.0,0.0,0.0025,0.0,0.0,0.0,0.0025,-0.03,0.01,0.03,0.02,0.0,0.0,0.0,0.02,0.0,0.0,0.0,0.02,-0.986345703125,-0.995921875,9.73896679687,0.04,0.0,0.0,0.0,0.04,0.0,0.0,0.0,0.04
1575431735673651696,21726,1570162028785111904,base_imu_link,-0.0346384251011,0.0611037557253,-0.306241866812,0.949358957167,0.0025,0.0,0.0,0.0,0.0025,0.0,0.0,0.0,0.0025,-0.03,0.0,0.03,0.02,0.0,0.0,0.0,0.02,0.0,0.0,0.0,0.02,-1.0679346875,-0.943444453125,9.7676953125,0.04,0.0,0.0,0.0,0.04,0.0,0.0,0.0,0.04
1575431735688365390,21727,1570162028805118083,base_imu_link,-0.0340738222339,0.0616674904371,-0.306467210629,0.949270216572,0.0025,0.0,0.0,0.0,0.0025,0.0,0.0,0.0,0.0025,-0.03,-0.0,0.03,0.02,0.0,0.0,0.0,0.02,0.0,0.0,0.0,0.02,-0.89556359375,-0.981749140625,9.59072765625,0.04,0.0,0.0,0.0,0.04,0.0,0.0,0.0,0.04
1575431735706438795,21728,1570162028825113058,base_imu_link,-0.0341499299009,0.061422352742,-0.306566754976,0.949251232085,0.0025,0.0,0.0,0.0,0.0025,0.0,0.0,0.0,0.0025,-0.04,-0.01,0.03,0.02,0.0,0.0,0.0,0.02,0.0,0.0,0.0,0.02,-0.847682734375,-1.18284875,9.6144765625,0.04,0.0,0.0,0.0,0.04,0.0,0.0,0.0,0.04
1575431735731868249,21729,1570162028845238924,base_imu_link,-0.0352130002209,0.0612938899714,-0.306287327686,0.949310895632,0.0025,0.0,0.0,0.0,0.0025,0.0,0.0,0.0,0.0025,-0.03,-0.01,0.03,0.02,0.0,0.0,0.0,0.02,0.0,0.0,0.0,0.02,-0.85725890625,-1.07751085937,9.67691320312,0.04,0.0,0.0,0.0,0.04,0.0,0.0,0.0,0.04
1575431735750013834,21730,1570162028865155935,base_imu_link,-0.0355972388411,0.0609605331267,-0.306299510809,0.949314099582,0.0025,0.0,0.0,0.0,0.0025,0.0,0.0,0.0,0.0025,-0.03,-0.01,0.03,0.02,0.0,0.0,0.0,0.02,0.0,0.0,0.0,0.02,-0.866835078125,-0.9913253125,9.55242296875,0.04,0.0,0.0,0.0,0.04,0.0,0.0,0.0,0.04
