%time,field.header.seq,field.header.stamp,field.header.frame_id,field.orientation.x,field.orientation.y,field.orientation.z,field.orientation.w,field.orientation_covariance0,field.orientation_covariance1,field.orientation_covariance2,field.orientation_covariance3,field.orientation_covariance4,field.orientation_covariance5,field.orientation_covariance6,field.orientation_covariance7,field.orientation_covariance8,field.angular_velocity.x,field.angular_velocity.y,field.angular_velocity.z,field.angular_velocity_covariance0,field.angular_velocity_covariance1,field.angular_velocity_covariance2,field.angular_velocity_covariance3,field.angular_velocity_covariance4,field.angular_velocity_covariance5,field.angular_velocity_covariance6,field.angular_velocity_covariance7,field.angular_velocity_covariance8,field.linear_acceleration.x,field.linear_acceleration.y,field.linear_acceleration.z,field.linear_acceleration_covariance0,field.linear_acceleration_covariance1,field.linear_acceleration_covariance2,field.linear_acceleration_covariance3,field.linear_acceleration_covariance4,field.linear_acceleration_covariance5,field.linear_acceleration_covariance6,field.linear_acceleration_covariance7,field.linear_acceleration_covariance8
1.57E+18,21288,1.57E+18,base_imu_link,-0.03578308,0.060602213,-0.308558701,0.948598161,0.0025,0,0,0,0.0025,0,0,0,0.0025,-0.03,0,0,0,0,0,0,0.02,0,0,0,0.02,-0.943444453,-1.024650391,9.60988,0.04,0,0,0,0.04,0,0,0,0.04
1.57E+18,21289,1.57E+18,base_imu_link,-0.035827105,0.060785055,-0.308293744,0.948670946,0.0025,0,0,0,0.0025,0,0,0,0.0025,-0.04,0,0,0,0,0,0,0.02,0,0,0,0.02,-1.010477656,-0.953020625,9.681509766,0.04,0,0,0,0.04,0,0,0,0.04
1.57E+18,21290,1.57E+18,base_imu_link,-0.035217261,0.061164901,-0.308783135,0.948510187,0.0025,0,0,0,0.0025,0,0,0,0.0025,-0.04,0,0,0,0,0,0,0.02,0,0,0,0.02,-1.034226563,-1.010477656,9.705641719,0.04,0,0,0,0.04,0,0,0,0.04
1.57E+18,21291,1.57E+18,base_imu_link,-0.035080467,0.061578085,-0.30875491,0.94849771,0.0025,0,0,0,0.0025,0,0,0,0.0025,-0.04,0,0,0,0,0,0,0.02,0,0,0,0.02,-0.857258906,-1.005498047,9.638608516,0.04,0,0,0,0.04,0,0,0,0.04
1.57E+18,21292,1.57E+18,base_imu_link,-0.035134487,0.061137954,-0.308788471,0.948513257,0.0025,0,0,0,0.0025,0,0,0,0.0025,-0.03,0,0,0,0,0,0,0.02,0,0,0,0.02,-0.933868281,-1.058358516,9.791827266,0.04,0,0,0,0.04,0,0,0,0.04
1.57E+18,21293,1.57E+18,base_imu_link,-0.035265289,0.061137222,-0.308038081,0.948752412,0.0025,0,0,0,0.0025,0,0,0,0.0025,-0.03,0,0,0,0,0,0,0.02,0,0,0,0.02,-0.790225703,-1.087087031,9.738966797,0.04,0,0,0,0.04,0,0,0,0.04
1.57E+18,21294,1.57E+18,base_imu_link,-0.035699428,0.060642363,-0.308144412,0.948733406,0.0025,0,0,0,0.0025,0,0,0,0.0025,-0.03,0,0,0,0,0,0,0.02,0,0,0,0.02,-0.881007813,-0.957617188,9.657760859,0.04,0,0,0,0.04,0,0,0,0.04
1.57E+18,21295,1.57E+18,base_imu_link,-0.035363896,0.06047066,-0.308667895,0.948586751,0.0025,0,0,0,0.0025,0,0,0,0.0025,-0.03,0,0,0,0,0,0,0.02,0,0,0,0.02,-1.005498047,-0.986345703,9.772674922,0.04,0,0,0,0.04,0,0,0,0.04
1.57E+18,21296,1.57E+18,base_imu_link,-0.034967446,0.060876579,-0.308401779,0.948662038,0.0025,0,0,0,0.0025,0,0,0,0.0025,-0.04,0,0,0,0,0,0,0.02,0,0,0,0.02,-0.967193359,-1.015074219,9.614476563,0.04,0,0,0,0.04,0,0,0,0.04
1.57E+18,21297,1.57E+18,base_imu_link,-0.03497427,0.061081007,-0.308716362,0.948546319,0.0025,0,0,0,0.0025,0,0,0,0.0025,-0.04,0,0,0,0,0,0,0.02,0,0,0,0.02,-0.866835078,-1.096663203,9.629032344,0.04,0,0,0,0.04,0,0,0,0.04
1.57E+18,21298,1.57E+18,base_imu_link,-0.035537007,0.061004029,-0.308949624,0.948454406,0.0025,0,0,0,0.0025,0,0,0,0.0025,-0.04,0,0,0,0,0,0,0.02,0,0,0,0.02,-0.890583984,-1.101259766,9.935086797,0.04,0,0,0,0.04,0,0,0,0.04
1.57E+18,21299,1.57E+18,base_imu_link,-0.035833227,0.060714914,-0.308630533,0.948565692,0.0025,0,0,0,0.0025,0,0,0,0.0025,0,0,0,0,0,0,0,0.02,0,0,0,0.02,-0.746941406,-1.020053828,9.614476563,0.04,0,0,0,0.04,0,0,0,0.04
1.57E+18,21300,1.57E+18,base_imu_link,-0.036017444,0.059931596,-0.308355455,0.948697982,0.0025,0,0,0,0.0025,0,0,0,0.0025,-0.03,0,0,0,0,0,0,0.02,0,0,0,0.02,-0.914715938,-1.000901484,9.585748047,0.04,0,0,0,0.04,0,0,0,0.04
1.57E+18,21301,1.57E+18,base_imu_link,-0.035869547,0.060076264,-0.308515009,0.94864256,0.0025,0,0,0,0.0025,0,0,0,0.0025,-0.03,0,0,0,0,0,0,0.02,0,0,0,0.02,-0.852279297,-0.953020625,9.853880859,0.04,0,0,0,0.04,0,0,0,0.04
1.57E+18,21302,1.57E+18,base_imu_link,-0.035427483,0.059749406,-0.308557585,0.948665968,0.0025,0,0,0,0.0025,0,0,0,0.0025,-0.03,0,0,0,0,0,0,0.02,0,0,0,0.02,-0.948041016,-1.020053828,9.681509766,0.04,0,0,0,0.04,0,0,0,0.04
1.57E+18,21303,1.57E+18,base_imu_link,-0.035417818,0.06003048,-0.308701168,0.94860187,0.0025,0,0,0,0.0025,0,0,0,0.0025,-0.04,0,0,0,0,0,0,0.02,0,0,0,0.02,-0.9193125,-1.005498047,9.667337031,0.04,0,0,0,0.04,0,0,0,0.04
1.57E+18,21304,1.57E+18,base_imu_link,-0.035379986,0.060119306,-0.308861131,0.948545585,0.0025,0,0,0,0.0025,0,0,0,0.0025,-0.04,0,0,0,0,0,0,0.02,0,0,0,0.02,-0.933868281,-0.976769531,9.581151484,0.04,0,0,0,0.04,0,0,0,0.04
1.57E+18,21305,1.57E+18,base_imu_link,-0.035186002,0.060215341,-0.308446539,0.948681607,0.0025,0,0,0,0.0025,0,0,0,0.0025,-0.03,0,0,0,0,0,0,0.02,0,0,0,0.02,-0.852279297,-1.110835938,9.671933594,0.04,0,0,0,0.04,0,0,0,0.04
1.57E+18,21306,1.57E+18,base_imu_link,-0.035703977,0.060022417,-0.30852549,0.948648806,0.0025,0,0,0,0.0025,0,0,0,0.0025,-0.03,0,0,0,0,0,0,0.02,0,0,0,0.02,-0.861855469,-1.062955078,9.710238281,0.04,0,0,0,0.04,0,0,0,0.04
1.57E+18,21307,1.57E+18,base_imu_link,-0.035934654,0.059904687,-0.308360683,0.948701122,0.0025,0,0,0,0.0025,0,0,0,0.0025,-0.03,0,0,0,0,0,0,0.02,0,0,0,0.02,-0.838106563,-1.120412109,9.882609375,0.04,0,0,0,0.04,0,0,0,0.04
1.57E+18,21308,1.57E+18,base_imu_link,-0.036373819,0.059748485,-0.307942719,0.948829988,0.0025,0,0,0,0.0025,0,0,0,0.0025,-0.03,0,0,0,0,0,0,0.02,0,0,0,0.02,-0.909736328,-0.885987422,9.84890125,0.04,0,0,0,0.04,0,0,0,0.04
1.57E+18,21309,1.57E+18,base_imu_link,-0.035497728,0.059574801,-0.308320366,0.948751446,0.0025,0,0,0,0.0025,0,0,0,0.0025,-0.04,0,0,0,0,0,0,0.02,0,0,0,0.02,-0.895563594,-0.953020625,9.629032344,0.04,0,0,0,0.04,0,0,0,0.04
1.57E+18,21310,1.57E+18,base_imu_link,-0.035254536,0.059491004,-0.308253156,0.94878761,0.0025,0,0,0,0.0025,0,0,0,0.0025,-0.04,0,0,0,0,0,0,0.02,0,0,0,0.02,-0.967193359,-1.039206172,9.710238281,0.04,0,0,0,0.04,0,0,0,0.04
1.57E+18,21311,1.57E+18,base_imu_link,-0.03531095,0.059875469,-0.308220485,0.948771942,0.0025,0,0,0,0.0025,0,0,0,0.0025,-0.03,0,0,0,0,0,0,0.02,0,0,0,0.02,-0.9193125,-0.953020625,9.715217891,0.04,0,0,0,0.04,0,0,0,0.04
1.57E+18,21312,1.57E+18,base_imu_link,-0.034969332,0.059773981,-0.308406956,0.948730397,0.0025,0,0,0,0.0025,0,0,0,0.0025,-0.03,0,0,0,0,0,0,0.02,0,0,0,0.02,-0.924292109,-1.115815547,9.648184688,0.04,0,0,0,0.04,0,0,0,0.04
1.57E+18,21313,1.57E+18,base_imu_link,-0.035406214,0.060103863,-0.30844722,0.948680261,0.0025,0,0,0,0.0025,0,0,0,0.0025,-0.03,0,0,0,0,0,0,0.02,0,0,0,0.02,-0.938464844,-0.995921875,9.686489375,0.04,0,0,0,0.04,0,0,0,0.04
1.57E+18,21314,1.57E+18,base_imu_link,-0.035153421,0.060301066,-0.308523739,0.948652266,0.0025,0,0,0,0.0025,0,0,0,0.0025,-0.03,0,0,0,0,0,0,0.02,0,0,0,0.02,-0.785246094,-0.995921875,9.65278125,0.04,0,0,0,0.04,0,0,0,0.04
1.57E+18,21315,1.57E+18,base_imu_link,-0.035256699,0.059698628,-0.308650795,0.948645205,0.0025,0,0,0,0.0025,0,0,0,0.0025,-0.03,0,0,0,0,0,0,0.02,0,0,0,0.02,-0.909736328,-1.024650391,9.844304688,0.04,0,0,0,0.04,0,0,0,0.04
1.57E+18,21316,1.57E+18,base_imu_link,-0.035245017,0.059772058,-0.308396864,0.948723597,0.0025,0,0,0,0.0025,0,0,0,0.0025,-0.04,0,0,0,0,0,0,0.02,0,0,0,0.02,-0.991325313,-0.967193359,9.825152344,0.04,0,0,0,0.04,0,0,0,0.04
1.57E+18,21317,1.57E+18,base_imu_link,-0.034908352,0.060009785,-0.308059119,0.94883076,0.0025,0,0,0,0.0025,0,0,0,0.0025,-0.04,0,0,0,0,0,0,0.02,0,0,0,0.02,-0.943444453,-1.005498047,9.45666125,0.04,0,0,0,0.04,0,0,0,0.04
1.57E+18,21318,1.57E+18,base_imu_link,-0.034861949,0.060312076,-0.308782295,0.948578195,0.0025,0,0,0,0.0025,0,0,0,0.0025,-0.03,0,0,0,0,0,0,0.02,0,0,0,0.02,-0.838106563,-1.000901484,9.60988,0.04,0,0,0,0.04,0,0,0,0.04
1.57E+18,21319,1.57E+18,base_imu_link,-0.034992271,0.059969271,-0.308473416,0.94869562,0.0025,0,0,0,0.0025,0,0,0,0.0025,-0.03,0,0,0,0,0,0,0.02,0,0,0,0.02,-0.818954219,-1.053378906,9.820172734,0.04,0,0,0,0.04,0,0,0,0.04
1.57E+18,21320,1.57E+18,base_imu_link,-0.03523896,0.059500232,-0.308501538,0.948706877,0.0025,0,0,0,0.0025,0,0,0,0.0025,-0.03,0,0,0,0,0,0,0.02,0,0,0,0.02,-0.866835078,-1.024650391,9.810596563,0.04,0,0,0,0.04,0,0,0,0.04
1.57E+18,21321,1.57E+18,base_imu_link,-0.035250719,0.059426801,-0.30875545,0.948628438,0.0025,0,0,0,0.0025,0,0,0,0.0025,-0.03,0,0,0,0,0,0,0.02,0,0,0,0.02,-0.885987422,-1.005498047,9.772674922,0.04,0,0,0,0.04,0,0,0,0.04
1.57E+18,21322,1.57E+18,base_imu_link,-0.035219759,0.059369145,-0.30793268,0.948900594,0.0025,0,0,0,0.0025,0,0,0,0.0025,-0.03,0,0,0,0,0,0,0.02,0,0,0,0.02,-0.933868281,-0.976769531,9.715217891,0.04,0,0,0,0.04,0,0,0,0.04
1.57E+18,21323,1.57E+18,base_imu_link,-0.034989232,0.059486865,-0.308097589,0.948848219,0.0025,0,0,0,0.0025,0,0,0,0.0025,-0.04,0,0,0,0,0,0,0.02,0,0,0,0.02,-1.010477656,-1.043802734,9.667337031,0.04,0,0,0,0.04,0,0,0,0.04
1.57E+18,21324,1.57E+18,base_imu_link,-0.035025675,0.06015845,-0.308374254,0.948714648,0.0025,0,0,0,0.0025,0,0,0,0.0025,-0.04,0,0,0,0,0,0,0.02,0,0,0,0.02,-1.053378906,-0.986345703,9.925510625,0.04,0,0,0,0.04,0,0,0,0.04
1.57E+18,21325,1.57E+18,base_imu_link,-0.034587001,0.060588773,-0.308770578,0.948574441,0.0025,0,0,0,0.0025,0,0,0,0.0025,-0.03,0,0,0,0,0,0,0.02,0,0,0,0.02,-0.9193125,-1.02963,9.671933594,0.04,0,0,0,0.04,0,0,0,0.04
1.57E+18,21326,1.57E+18,base_imu_link,-0.0346592,0.060621768,-0.308930842,0.948517515,0.0025,0,0,0,0.0025,0,0,0,0.0025,-0.03,0,0,0,0,0,0,0.02,0,0,0,0.02,-0.943444453,-1.077510859,9.643205078,0.04,0,0,0,0.04,0,0,0,0.04
1.57E+18,21327,1.57E+18,base_imu_link,-0.034967446,0.060876579,-0.308401779,0.948662038,0.0025,0,0,0,0.0025,0,0,0,0.0025,-0.03,0,0,0,0,0,0,0.02,0,0,0,0.02,-0.885987422,-0.948041016,9.700662109,0.04,0,0,0,0.04,0,0,0,0.04
1.57E+18,21328,1.57E+18,base_imu_link,-0.034596709,0.060650296,-0.308185505,0.948760404,0.0025,0,0,0,0.0025,0,0,0,0.0025,-0.03,0,0,0,0,0,0,0.02,0,0,0,0.02,-0.809378047,-1.101259766,9.772674922,0.04,0,0,0,0.04,0,0,0,0.04
1.57E+18,21329,1.57E+18,base_imu_link,-0.035191256,0.060212271,-0.30836375,0.94870852,0.0025,0,0,0,0.0025,0,0,0,0.0025,-0.03,0,0,0,0,0,0,0.02,0,0,0,0.02,-1.005498047,-1.058358516,9.667337031,0.04,0,0,0,0.04,0,0,0,0.04
1.57E+18,21330,1.57E+18,base_imu_link,-0.03526514,0.06079509,-0.308479864,0.948630856,0.0025,0,0,0,0.0025,0,0,0,0.0025,-0.04,0,0,0,0,0,0,0.02,0,0,0,0.02,-0.938464844,-1.053378906,9.858477422,0.04,0,0,0,0.04,0,0,0,0.04
1.57E+18,21331,1.57E+18,base_imu_link,-0.035342616,0.060825094,-0.308557339,0.948600852,0.0025,0,0,0,0.0025,0,0,0,0.0025,-0.04,0,0,0,0,0,0,0.02,0,0,0,0.02,-1.020053828,-0.972172969,9.614476563,0.04,0,0,0,0.04,0,0,0,0.04
1.57E+18,21332,1.57E+18,base_imu_link,-0.034996998,0.061276284,-0.308782552,0.94851134,0.0025,0,0,0,0.0025,0,0,0,0.0025,-0.04,0,0,0,0,0,0,0.02,0,0,0,0.02,-0.976769531,-1.053378906,9.815576172,0.04,0,0,0,0.04,0,0,0,0.04
1.57E+18,21333,1.57E+18,base_imu_link,-0.035046508,0.061456274,-0.308434816,0.948611002,0.0025,0,0,0,0.0025,0,0,0,0.0025,-0.03,0,0,0,0,0,0,0.02,0,0,0,0.02,-0.794822266,-1.024650391,9.657760859,0.04,0,0,0,0.04,0,0,0,0.04
1.57E+18,21334,1.57E+18,base_imu_link,-0.035291664,0.060779697,-0.308065916,0.948765365,0.0025,0,0,0,0.0025,0,0,0,0.0025,-0.03,0,0,0,0,0,0,0.02,0,0,0,0.02,-0.785246094,-0.914715938,9.705641719,0.04,0,0,0,0.04,0,0,0,0.04
1.57E+18,21335,1.57E+18,base_imu_link,-0.034871688,0.060031098,-0.308638669,0.948642401,0.0025,0,0,0,0.0025,0,0,0,0.0025,-0.03,0,0,0,0,0,0,0.02,0,0,0,0.02,-0.905139766,-1.000901484,9.734370234,0.04,0,0,0,0.04,0,0,0,0.04
1.57E+18,21336,1.57E+18,base_imu_link,-0.034777301,0.060077716,-0.308389993,0.948723785,0.0025,0,0,0,0.0025,0,0,0,0.0025,-0.03,0,0,0,0,0,0,0.02,0,0,0,0.02,-0.838106563,-0.953020625,9.686489375,0.04,0,0,0,0.04,0,0,0,0.04
1.57E+18,21337,1.57E+18,base_imu_link,-0.034606914,0.059684451,-0.308924521,0.948580923,0.0025,0,0,0,0.0025,0,0,0,0.0025,-0.04,0,0,0,0,0,0,0.02,0,0,0,0.02,-0.976769531,-1.020053828,9.667337031,0.04,0,0,0,0.04,0,0,0,0.04
1.57E+18,21338,1.57E+18,base_imu_link,-0.034640957,0.060148586,-0.308803621,0.94858973,0.0025,0,0,0,0.0025,0,0,0,0.0025,-0.04,0,0,0,0,0,0,0.02,0,0,0,0.02,-1.024650391,-0.972172969,9.839325078,0.04,0,0,0,0.04,0,0,0,0.04
1.57E+18,21339,1.57E+18,base_imu_link,-0.034287547,0.060463043,-0.308294988,0.948748009,0.0025,0,0,0,0.0025,0,0,0,0.0025,-0.04,0,0,0,0,0,0,0.02,0,0,0,0.02,-0.794822266,-1.154120234,9.629032344,0.04,0,0,0,0.04,0,0,0,0.04
1.57E+18,21340,1.57E+18,base_imu_link,-0.035219674,0.060062325,-0.308788841,0.948578697,0.0025,0,0,0,0.0025,0,0,0,0.0025,-0.03,0,0,0,0,0,0,0.02,0,0,0,0.02,-0.881007813,-1.082107422,9.648184688,0.04,0,0,0,0.04,0,0,0,0.04
1.57E+18,21341,1.57E+18,base_imu_link,-0.035599108,0.06007504,-0.308442334,0.948676457,0.0025,0,0,0,0.0025,0,0,0,0.0025,-0.03,0,0,0,0,0,0,0.02,0,0,0,0.02,-0.818954219,-0.957617188,9.729390625,0.04,0,0,0,0.04,0,0,0,0.04
1.57E+18,21342,1.57E+18,base_imu_link,-0.035304838,0.059603653,-0.308325199,0.948755261,0.0025,0,0,0,0.0025,0,0,0,0.0025,-0.03,0,0,0,0,0,0,0.02,0,0,0,0.02,-0.809378047,-1.139564453,9.676913203,0.04,0,0,0,0.04,0,0,0,0.04
1.57E+18,21343,1.57E+18,base_imu_link,-0.036066014,0.059494538,-0.308471552,0.948685904,0.0025,0,0,0,0.0025,0,0,0,0.0025,-0.03,0,0,0,0,0,0,0.02,0,0,0,0.02,-0.838106563,-1.005498047,9.839325078,0.04,0,0,0,0.04,0,0,0,0.04
1.57E+18,21344,1.57E+18,base_imu_link,-0.035982385,0.059192719,-0.308498708,0.948699129,0.0025,0,0,0,0.0025,0,0,0,0.0025,-0.04,0,0,0,0,0,0,0.02,0,0,0,0.02,-0.933868281,-0.948041016,9.480410156,0.04,0,0,0,0.04,0,0,0,0.04
1.57E+18,21345,1.57E+18,base_imu_link,-0.035667607,0.0593506,-0.308249102,0.948782282,0.0025,0,0,0,0.0025,0,0,0,0.0025,-0.04,0,0,0,0,0,0,0.02,0,0,0,0.02,-0.9193125,-1.168292969,9.829748906,0.04,0,0,0,0.04,0,0,0,0.04
1.57E+18,21346,1.57E+18,base_imu_link,-0.036309179,0.059578462,-0.308538753,0.948649508,0.0025,0,0,0,0.0025,0,0,0,0.0025,-0.04,0,0,0,0,0,0,0.02,0,0,0,0.02,-0.909736328,-0.986345703,9.65278125,0.04,0,0,0,0.04,0,0,0,0.04
1.57E+18,21347,1.57E+18,base_imu_link,-0.036038697,0.059577196,-0.308465941,0.948683579,0.0025,0,0,0,0.0025,0,0,0,0.0025,-0.03,0,0,0,0,0,0,0.02,0,0,0,0.02,-0.785246094,-1.129988281,9.906358281,0.04,0,0,0,0.04,0,0,0,0.04
1.57E+18,21348,1.57E+18,base_imu_link,-0.036664495,0.059120392,-0.308148227,0.948791423,0.0025,0,0,0,0.0025,0,0,0,0.0025,-0.03,0,0,0,0,0,0,0.02,0,0,0,0.02,-0.881007813,-0.991325313,9.801403438,0.04,0,0,0,0.04,0,0,0,0.04
1.57E+18,21349,1.57E+18,base_imu_link,-0.036317851,0.059022334,-0.308417231,0.948723453,0.0025,0,0,0,0.0025,0,0,0,0.0025,-0.03,0,0,0,0,0,0,0.02,0,0,0,0.02,-0.87641125,-0.866835078,9.734370234,0.04,0,0,0,0.04,0,0,0,0.04
1.57E+18,21350,1.57E+18,base_imu_link,-0.035513944,0.058804865,-0.307635028,0.949021305,0.0025,0,0,0,0.0025,0,0,0,0.0025,-0.03,0,0,0,0,0,0,0.02,0,0,0,0.02,-1.043802734,-1.034226563,9.868053594,0.04,0,0,0,0.04,0,0,0,0.04
1.57E+18,21351,1.57E+18,base_imu_link,-0.035325641,0.059591326,-0.307994002,0.948862829,0.0025,0,0,0,0.0025,0,0,0,0.0025,-0.04,0,0,0,0,0,0,0.02,0,0,0,0.02,-0.957617188,-0.857258906,9.676913203,0.04,0,0,0,0.04,0,0,0,0.04
1.57E+18,21352,1.57E+18,base_imu_link,-0.034455683,0.059689144,-0.308267114,0.948799978,0.0025,0,0,0,0.0025,0,0,0,0.0025,-0.04,0,0,0,0,0,0,0.02,0,0,0,0.02,-0.813974609,-0.981749141,9.624052734,0.04,0,0,0,0.04,0,0,0,0.04
1.57E+18,21353,1.57E+18,base_imu_link,-0.03455213,0.059157168,-0.308056861,0.948898072,0.0025,0,0,0,0.0025,0,0,0,0.0025,-0.04,0,0,0,0,0,0,0.02,0,0,0,0.02,-0.905139766,-1.020053828,9.681509766,0.04,0,0,0,0.04,0,0,0,0.04
1.57E+18,21354,1.57E+18,base_imu_link,-0.034702241,0.05922002,-0.30829494,0.948811348,0.0025,0,0,0,0.0025,0,0,0,0.0025,-0.03,0,0,0,0,0,0,0.02,0,0,0,0.02,-0.818954219,-1.015074219,9.700662109,0.04,0,0,0,0.04,0,0,0,0.04
1.57E+18,21355,1.57E+18,base_imu_link,-0.034569581,0.059031612,-0.312205923,0.947548244,0.0025,0,0,0,0.0025,0,0,0,0.0025,-0.03,0,0,0,0,0,0,0.02,0,0,0,0.02,-0.833126953,-1.168292969,9.76309875,0.04,0,0,0,0.04,0,0,0,0.04
1.57E+18,21356,1.57E+18,base_imu_link,-0.035437869,0.059004401,-0.311514569,0.947745383,0.0025,0,0,0,0.0025,0,0,0,0.0025,-0.03,0,0,0,0,0,0,0.02,0,0,0,0.02,-1.005498047,-0.938464844,9.791827266,0.04,0,0,0,0.04,0,0,0,0.04
1.57E+18,21357,1.57E+18,base_imu_link,-0.034834909,0.059510866,-0.310999777,0.947905124,0.0025,0,0,0,0.0025,0,0,0,0.0025,-0.03,0,0,0,0,0,0,0.02,0,0,0,0.02,-0.928888672,-1.010477656,9.537867188,0.04,0,0,0,0.04,0,0,0,0.04
1.57E+18,21358,1.57E+18,base_imu_link,-0.034808943,0.059800968,-0.311391507,0.947759205,0.0025,0,0,0,0.0025,0,0,0,0.0025,-0.04,0,0,0,0,0,0,0.02,0,0,0,0.02,-0.881007813,-0.991325313,9.643205078,0.04,0,0,0,0.04,0,0,0,0.04
1.57E+18,21359,1.57E+18,base_imu_link,-0.034852144,0.059709269,-0.311148924,0.947843066,0.0025,0,0,0,0.0025,0,0,0,0.0025,-0.04,0,0,0,0,0,0,0.02,0,0,0,0.02,-0.967193359,-0.981749141,9.557019531,0.04,0,0,0,0.04,0,0,0,0.04
1.57E+18,21360,1.57E+18,base_imu_link,-0.034643529,0.060021524,-0.311380079,0.947755079,0.0025,0,0,0,0.0025,0,0,0,0.0025,-0.03,0,0,0,0,0,0,0.02,0,0,0,0.02,-0.818954219,-1.115815547,9.963815313,0.04,0,0,0,0.04,0,0,0,0.04
1.57E+18,21361,1.57E+18,base_imu_link,-0.035188125,0.059539904,-0.311067268,0.947868108,0.0025,0,0,0,0.0025,0,0,0,0.0025,-0.03,0,0,0,0,0,0,0.02,0,0,0,0.02,-0.842703125,-0.948041016,9.724794063,0.04,0,0,0,0.04,0,0,0,0.04
1.57E+18,21362,1.57E+18,base_imu_link,-0.034976015,0.059162194,-0.310525536,0.948077214,0.0025,0,0,0,0.0025,0,0,0,0.0025,-0.03,0,0,0,0,0,0,0.02,0,0,0,0.02,-0.866835078,-1.015074219,9.839325078,0.04,0,0,0,0.04,0,0,0,0.04
1.57E+18,21363,1.57E+18,base_imu_link,-0.034931073,0.059046392,-0.310370739,0.948136777,0.0025,0,0,0,0.0025,0,0,0,0.0025,-0.03,0,0,0,0,0,0,0.02,0,0,0,0.02,-1.005498047,-1.010477656,9.906358281,0.04,0,0,0,0.04,0,0,0,0.04
1.57E+18,21364,1.57E+18,base_imu_link,-0.034676822,0.059585487,-0.310006294,0.94823161,0.0025,0,0,0,0.0025,0,0,0,0.0025,-0.03,0,0,0,0,0,0,0.02,0,0,0,0.02,-0.981749141,-0.957617188,9.595324219,0.04,0,0,0,0.04,0,0,0,0.04
1.57E+18,21365,1.57E+18,base_imu_link,-0.034363633,0.059950476,-0.310154599,0.948171506,0.0025,0,0,0,0.0025,0,0,0,0.0025,-0.04,0,0,0,0,0,0,0.02,0,0,0,0.02,-0.986345703,-0.957617188,9.791827266,0.04,0,0,0,0.04,0,0,0,0.04
1.57E+18,21366,1.57E+18,base_imu_link,-0.033995053,0.060205666,-0.310313744,0.948116551,0.0025,0,0,0,0.0025,0,0,0,0.0025,-0.04,0,0,0,0,0,0,0.02,0,0,0,0.02,-0.87641125,-1.058358516,9.561999141,0.04,0,0,0,0.04,0,0,0,0.04
1.57E+18,21367,1.57E+18,base_imu_link,-0.034468947,0.060172839,-0.310215794,0.948133578,0.0025,0,0,0,0.0025,0,0,0,0.0025,-0.03,0,0,0,0,0,0,0.02,0,0,0,0.02,-0.852279297,-1.005498047,9.380051875,0.04,0,0,0,0.04,0,0,0,0.04
1.57E+18,21368,1.57E+18,base_imu_link,-0.034627578,0.060022608,-0.309890655,0.948243639,0.0025,0,0,0,0.0025,0,0,0,0.0025,-0.03,0,0,0,0,0,0,0.02,0,0,0,0.02,-0.914715938,-0.948041016,9.786847656,0.04,0,0,0,0.04,0,0,0,0.04
1.57E+18,21369,1.57E+18,base_imu_link,-0.034284844,0.05998808,-0.309657809,0.94833434,0.0025,0,0,0,0.0025,0,0,0,0.0025,-0.03,0,0,0,0,0,0,0.02,0,0,0,0.02,-0.957617188,-1.020053828,9.700662109,0.04,0,0,0,0.04,0,0,0,0.04
1.57E+18,21370,1.57E+18,base_imu_link,-0.034290607,0.06025999,-0.309553234,0.948351034,0.0025,0,0,0,0.0025,0,0,0,0.0025,-0.03,0,0,0,0,0,0,0.02,0,0,0,0.02,-0.905139766,-1.149140625,9.696065547,0.04,0,0,0,0.04,0,0,0,0.04
1.57E+18,21371,1.57E+18,base_imu_link,-0.035035429,0.060503094,-0.30950581,0.94832381,0.0025,0,0,0,0.0025,0,0,0,0.0025,-0.04,0,0,0,0,0,0,0.02,0,0,0,0.02,-1.020053828,-0.943444453,9.877629766,0.04,0,0,0,0.04,0,0,0,0.04
1.57E+18,21372,1.57E+18,base_imu_link,-0.034446542,0.060869805,-0.309664291,0.948270178,0.0025,0,0,0,0.0025,0,0,0,0.0025,-0.04,0,0,0,0,0,0,0.02,0,0,0,0.02,-1.02963,-1.101259766,9.557019531,0.04,0,0,0,0.04,0,0,0,0.04
1.57E+18,21373,1.57E+18,base_imu_link,-0.034888074,0.061539424,-0.309179487,0.948369003,0.0025,0,0,0,0.0025,0,0,0,0.0025,-0.04,0,0,0,0,0,0,0.02,0,0,0,0.02,-0.953020625,-1.096663203,10.09328516,0.04,0,0,0,0.04,0,0,0,0.04
1.57E+18,21374,1.57E+18,base_imu_link,-0.035020266,0.061404212,-0.309268159,0.948343983,0.0025,0,0,0,0.0025,0,0,0,0.0025,-0.03,0,0,0,0,0,0,0.02,0,0,0,0.02,-0.823550781,-0.972172969,9.676913203,0.04,0,0,0,0.04,0,0,0,0.04
1.57E+18,21375,1.57E+18,base_imu_link,-0.034904538,0.060845774,-0.309814415,0.948205934,0.0025,0,0,0,0.0025,0,0,0,0.0025,-0.03,0,0,0,0,0,0,0.02,0,0,0,0.02,-0.914715938,-0.976769531,9.715217891,0.04,0,0,0,0.04,0,0,0,0.04
1.57E+18,21376,1.57E+18,base_imu_link,-0.034704011,0.060737425,-0.309085512,0.948458087,0.0025,0,0,0,0.0025,0,0,0,0.0025,-0.03,0,0,0,0,0,0,0.02,0,0,0,0.02,-0.847682734,-0.953020625,9.710238281,0.04,0,0,0,0.04,0,0,0,0.04
1.57E+18,21377,1.57E+18,base_imu_link,-0.034433983,0.060393639,-0.309454406,0.94836959,0.0025,0,0,0,0.0025,0,0,0,0.0025,-0.03,0,0,0,0,0,0,0.02,0,0,0,0.02,-1.005498047,-1.000901484,9.638608516,0.04,0,0,0,0.04,0,0,0,0.04
1.57E+18,21378,1.57E+18,base_imu_link,-0.034362942,0.060910413,-0.309250243,0.948405713,0.0025,0,0,0,0.0025,0,0,0,0.0025,-0.04,0,0,0,0,0,0,0.02,0,0,0,0.02,-0.967193359,-0.976769531,9.715217891,0.04,0,0,0,0.04,0,0,0,0.04
1.57E+18,21379,1.57E+18,base_imu_link,-0.03415328,0.06101574,-0.309084225,0.948460634,0.0025,0,0,0,0.0025,0,0,0,0.0025,-0.04,0,0,0,0,0,0,0.02,0,0,0,0.02,-0.995921875,-1.07253125,9.619456172,0.04,0,0,0,0.04,0,0,0,0.04
1.57E+18,21380,1.57E+18,base_imu_link,-0.034462969,0.06147812,-0.30895241,0.948462521,0.0025,0,0,0,0.0025,0,0,0,0.0025,-0.04,0,0,0,0,0,0,0.02,0,0,0,0.02,-0.957617188,-1.058358516,9.624052734,0.04,0,0,0,0.04,0,0,0,0.04
1.57E+18,21381,1.57E+18,base_imu_link,-0.034678522,0.06164466,-0.309013445,0.94842397,0.0025,0,0,0,0.0025,0,0,0,0.0025,-0.03,0,0,0,0,0,0,0.02,0,0,0,0.02,-0.976769531,-1.058358516,9.896782109,0.04,0,0,0,0.04,0,0,0,0.04
1.57E+18,21382,1.57E+18,base_imu_link,-0.034701129,0.061839912,-0.309079555,0.948388889,0.0025,0,0,0,0.0025,0,0,0,0.0025,-0.03,0,0,0,0,0,0,0.02,0,0,0,0.02,-0.76609375,-0.957617188,9.76309875,0.04,0,0,0,0.04,0,0,0,0.04
1.57E+18,21383,1.57E+18,base_imu_link,-0.034643941,0.060905719,-0.30915711,0.948426155,0.0025,0,0,0,0.0025,0,0,0,0.0025,-0.03,0,0,0,0,0,0,0.02,0,0,0,0.02,-0.938464844,-0.995921875,9.710238281,0.04,0,0,0,0.04,0,0,0,0.04
1.57E+18,21384,1.57E+18,base_imu_link,-0.034517058,0.061037981,-0.308985724,0.948478128,0.0025,0,0,0,0.0025,0,0,0,0.0025,-0.03,0,0,0,0,0,0,0.02,0,0,0,0.02,-0.928888672,-1.005498047,9.825152344,0.04,0,0,0,0.04,0,0,0,0.04
1.57E+18,21385,1.57E+18,base_imu_link,-0.034455582,0.060998993,-0.308659948,0.948588937,0.0025,0,0,0,0.0025,0,0,0,0.0025,-0.04,0,0,0,0,0,0,0.02,0,0,0,0.02,-0.885987422,-1.034226563,9.76309875,0.04,0,0,0,0.04,0,0,0,0.04
1.57E+18,21386,1.57E+18,base_imu_link,-0.034588559,0.060796107,-0.309168002,0.948431659,0.0025,0,0,0,0.0025,0,0,0,0.0025,-0.04,0,0,0,0,0,0,0.02,0,0,0,0.02,-0.995921875,-1.034226563,9.868053594,0.04,0,0,0,0.04,0,0,0,0.04
1.57E+18,21387,1.57E+18,base_imu_link,-0.034595264,0.061000431,-0.309482565,0.948315695,0.0025,0,0,0,0.0025,0,0,0,0.0025,-0.04,0,0,0,0,0,0,0.02,0,0,0,0.02,-0.861855469,-1.015074219,9.801403438,0.04,0,0,0,0.04,0,0,0,0.04
1.57E+18,21388,1.57E+18,base_imu_link,-0.034665428,0.06055123,-0.30926749,0.948412081,0.0025,0,0,0,0.0025,0,0,0,0.0025,-0.03,0,0,0,0,0,0,0.02,0,0,0,0.02,-0.909736328,-1.115815547,9.868053594,0.04,0,0,0,0.04,0,0,0,0.04
1.57E+18,21389,1.57E+18,base_imu_link,-0.035080193,0.06061885,-0.309660433,0.948264283,0.0025,0,0,0,0.0025,0,0,0,0.0025,-0.03,0,0,0,0,0,0,0.02,0,0,0,0.02,-0.828530391,-0.909736328,9.648184688,0.04,0,0,0,0.04,0,0,0,0.04
1.57E+18,21390,1.57E+18,base_imu_link,-0.034673545,0.06006291,-0.308726384,0.948619108,0.0025,0,0,0,0.0025,0,0,0,0.0025,-0.03,0,0,0,0,0,0,0.02,0,0,0,0.02,-0.857258906,-1.02963,9.829748906,0.04,0,0,0,0.04,0,0,0,0.04
1.57E+18,21391,1.57E+18,base_imu_link,-0.034848787,0.059835813,-0.30857221,0.948677199,0.0025,0,0,0,0.0025,0,0,0,0.0025,-0.03,0,0,0,0,0,0,0.02,0,0,0,0.02,-1.015074219,-1.082107422,9.681509766,0.04,0,0,0,0.04,0,0,0,0.04
1.57E+18,21392,1.57E+18,base_imu_link,-0.035060874,0.060555145,-0.308672529,0.948591102,0.0025,0,0,0,0.0025,0,0,0,0.0025,-0.04,0,0,0,0,0,0,0.02,0,0,0,0.02,-1.02963,-0.953020625,9.782251094,0.04,0,0,0,0.04,0,0,0,0.04
1.57E+18,21393,1.57E+18,base_imu_link,-0.034565704,0.060943282,-0.308660205,0.948588428,0.0025,0,0,0,0.0025,0,0,0,0.0025,-0.04,0,0,0,0,0,0,0.02,0,0,0,0.02,-0.924292109,-1.067934688,9.614476563,0.04,0,0,0,0.04,0,0,0,0.04
1.57E+18,21394,1.57E+18,base_imu_link,-0.034892237,0.060986654,-0.309141154,0.948417053,0.0025,0,0,0,0.0025,0,0,0,0.0025,-0.03,0,0,0,0,0,0,0.02,0,0,0,0.02,-0.842703125,-0.972172969,9.629032344,0.04,0,0,0,0.04,0,0,0,0.04
1.57E+18,21395,1.57E+18,base_imu_link,-0.034764051,0.06056912,-0.309013901,0.948489985,0.0025,0,0,0,0.0025,0,0,0,0.0025,-0.03,0,0,0,0,0,0,0.02,0,0,0,0.02,-0.933868281,-1.024650391,9.734370234,0.04,0,0,0,0.04,0,0,0,0.04
1.57E+18,21396,1.57E+18,base_imu_link,-0.034768433,0.060633562,-0.308511654,0.948649191,0.0025,0,0,0,0.0025,0,0,0,0.0025,-0.03,0,0,0,0,0,0,0.02,0,0,0,0.02,-0.895563594,-1.058358516,9.887205938,0.04,0,0,0,0.04,0,0,0,0.04
1.57E+18,21397,1.57E+18,base_imu_link,-0.034945463,0.060613905,-0.308755002,0.948564767,0.0025,0,0,0,0.0025,0,0,0,0.0025,-0.03,0,0,0,0,0,0,0.02,0,0,0,0.02,-0.895563594,-0.953020625,9.643205078,0.04,0,0,0,0.04,0,0,0,0.04
1.57E+18,21398,1.57E+18,base_imu_link,-0.034598507,0.060515186,-0.309024468,0.948496038,0.0025,0,0,0,0.0025,0,0,0,0.0025,-0.03,0,0,0,0,0,0,0.02,0,0,0,0.02,-0.972172969,-1.005498047,9.696065547,0.04,0,0,0,0.04,0,0,0,0.04
1.57E+18,21399,1.57E+18,base_imu_link,-0.034615083,0.060781009,-0.308754142,0.948566468,0.0025,0,0,0,0.0025,0,0,0,0.0025,-0.04,0,0,0,0,0,0,0.02,0,0,0,0.02,-0.905139766,-0.933868281,9.84890125,0.04,0,0,0,0.04,0,0,0,0.04
1.57E+18,21400,1.57E+18,base_imu_link,-0.034240049,0.060489954,-0.309040038,0.948505582,0.0025,0,0,0,0.0025,0,0,0,0.0025,-0.04,0,0,0,0,0,0,0.02,0,0,0,0.02,-0.933868281,-1.07253125,9.619456172,0.04,0,0,0,0.04,0,0,0,0.04
1.57E+18,21401,1.57E+18,base_imu_link,-0.03456585,0.060600842,-0.309101674,0.948466602,0.0025,0,0,0,0.0025,0,0,0,0.0025,-0.03,0,0,0,0,0,0,0.02,0,0,0,0.02,-0.881007813,-0.981749141,9.724794063,0.04,0,0,0,0.04,0,0,0,0.04
1.57E+18,21402,1.57E+18,base_imu_link,-0.034481406,0.060366576,-0.308709463,0.948612343,0.0025,0,0,0,0.0025,0,0,0,0.0025,-0.03,0,0,0,0,0,0,0.02,0,0,0,0.02,-0.857258906,-1.000901484,9.629032344,0.04,0,0,0,0.04,0,0,0,0.04
1.57E+18,21403,1.57E+18,base_imu_link,-0.034499303,0.060222359,-0.309299968,0.948428487,0.0025,0,0,0,0.0025,0,0,0,0.0025,-0.03,0,0,0,0,0,0,0.02,0,0,0,0.02,-0.9193125,-1.020053828,9.767695313,0.04,0,0,0,0.04,0,0,0,0.04
1.57E+18,21404,1.57E+18,base_imu_link,-0.034492962,0.060292957,-0.308963343,0.948533947,0.0025,0,0,0,0.0025,0,0,0,0.0025,-0.03,0,0,0,0,0,0,0.02,0,0,0,0.02,-0.957617188,-0.976769531,9.873033203,0.04,0,0,0,0.04,0,0,0,0.04
1.57E+18,21405,1.57E+18,base_imu_link,-0.034179375,0.060383326,-0.309133615,0.948484071,0.0025,0,0,0,0.0025,0,0,0,0.0025,-0.03,0,0,0,0,0,0,0.02,0,0,0,0.02,-0.962596797,-0.981749141,9.65278125,0.04,0,0,0,0.04,0,0,0,0.04
1.57E+18,21406,1.57E+18,base_imu_link,-0.034086666,0.060637194,-0.309282559,0.948422653,0.0025,0,0,0,0.0025,0,0,0,0.0025,-0.04,0,0,0,0,0,0,0.02,0,0,0,0.02,-1.039206172,-1.005498047,9.667337031,0.04,0,0,0,0.04,0,0,0,0.04
1.57E+18,21407,1.57E+18,base_imu_link,-0.033954322,0.061115218,-0.308752683,0.948569352,0.0025,0,0,0,0.0025,0,0,0,0.0025,-0.03,0,0,0,0,0,0,0.02,0,0,0,0.02,-0.933868281,-1.091683594,9.65278125,0.04,0,0,0,0.04,0,0,0,0.04
1.57E+18,21408,1.57E+18,base_imu_link,-0.034434944,0.061285889,-0.308968961,0.948470588,0.0025,0,0,0,0.0025,0,0,0,0.0025,-0.03,0,0,0,0,0,0,0.02,0,0,0,0.02,-0.746941406,-0.991325313,9.700662109,0.04,0,0,0,0.04,0,0,0,0.04
1.57E+18,21409,1.57E+18,base_imu_link,-0.034554679,0.060331985,-0.309289161,0.948423028,0.0025,0,0,0,0.0025,0,0,0,0.0025,-0.03,0,0,0,0,0,0,0.02,0,0,0,0.02,-0.847682734,-1.043802734,9.782251094,0.04,0,0,0,0.04,0,0,0,0.04
1.57E+18,21410,1.57E+18,base_imu_link,-0.034709122,0.060117131,-0.309466087,0.948373317,0.0025,0,0,0,0.0025,0,0,0,0.0025,-0.03,0,0,0,0,0,0,0.02,0,0,0,0.02,-0.842703125,-1.053378906,9.758119141,0.04,0,0,0,0.04,0,0,0,0.04
1.57E+18,21411,1.57E+18,base_imu_link,-0.034951627,0.059926302,-0.309555039,0.948347457,0.0025,0,0,0,0.0025,0,0,0,0.0025,-0.03,0,0,0,0,0,0,0.02,0,0,0,0.02,-1.048782344,-1.000901484,9.84890125,0.04,0,0,0,0.04,0,0,0,0.04
1.57E+18,21412,1.57E+18,base_imu_link,-0.034639004,0.06056635,-0.309681283,0.948277048,0.0025,0,0,0,0.0025,0,0,0,0.0025,-0.03,0,0,0,0,0,0,0.02,0,0,0,0.02,-0.933868281,-0.847682734,9.614476563,0.04,0,0,0,0.04,0,0,0,0.04
1.57E+18,21413,1.57E+18,base_imu_link,-0.033866793,0.060405733,-0.309723248,0.94830148,0.0025,0,0,0,0.0025,0,0,0,0.0025,-0.04,0,0,0,0,0,0,0.02,0,0,0,0.02,-1.120412109,-1.115815547,9.624052734,0.04,0,0,0,0.04,0,0,0,0.04
1.57E+18,21414,1.57E+18,base_imu_link,-0.034178171,0.061625291,-0.309945012,0.94813937,0.0025,0,0,0,0.0025,0,0,0,0.0025,-0.04,0,0,0,0,0,0,0.02,0,0,0,0.02,-1.02963,-1.082107422,9.676913203,0.04,0,0,0,0.04,0,0,0,0.04
1.57E+18,21415,1.57E+18,base_imu_link,-0.03447661,0.06209394,-0.309978284,0.948087111,0.0025,0,0,0,0.0025,0,0,0,0.0025,-0.03,0,0,0,0,0,0,0.02,0,0,0,0.02,-0.857258906,-1.077510859,9.734370234,0.04,0,0,0,0.04,0,0,0,0.04
1.57E+18,21416,1.57E+18,base_imu_link,-0.03478481,0.061732012,-0.309912955,0.948120845,0.0025,0,0,0,0.0025,0,0,0,0.0025,-0.03,0,0,0,0,0,0,0.02,0,0,0,0.02,-0.857258906,-0.995921875,9.447085078,0.04,0,0,0,0.04,0,0,0,0.04
1.57E+18,21417,1.57E+18,base_imu_link,-0.034840359,0.061499411,-0.310343546,0.947993067,0.0025,0,0,0,0.0025,0,0,0,0.0025,-0.03,0,0,0,0,0,0,0.02,0,0,0,0.02,-0.857258906,-0.972172969,9.480410156,0.04,0,0,0,0.04,0,0,0,0.04
1.57E+18,21418,1.57E+18,base_imu_link,-0.034860761,0.061279782,-0.309615515,0.948244562,0.0025,0,0,0,0.0025,0,0,0,0.0025,-0.03,0,0,0,0,0,0,0.02,0,0,0,0.02,-0.890583984,-1.034226563,9.710238281,0.04,0,0,0,0.04,0,0,0,0.04
1.57E+18,21419,1.57E+18,base_imu_link,-0.03503038,0.061123238,-0.309124881,0.948408472,0.0025,0,0,0,0.0025,0,0,0,0.0025,-0.03,0,0,0,0,0,0,0.02,0,0,0,0.02,-0.967193359,-0.948041016,9.76309875,0.04,0,0,0,0.04,0,0,0,0.04
1.57E+18,21420,1.57E+18,base_imu_link,-0.034519082,0.061177728,-0.309802384,0.948202616,0.0025,0,0,0,0.0025,0,0,0,0.0025,-0.04,0,0,0,0,0,0,0.02,0,0,0,0.02,-0.861855469,-0.981749141,9.466237422,0.04,0,0,0,0.04,0,0,0,0.04
1.57E+18,21421,1.57E+18,base_imu_link,-0.034601412,0.06092989,-0.309819161,0.948210092,0.0025,0,0,0,0.0025,0,0,0,0.0025,-0.04,0,0,0,0,0,0,0.02,0,0,0,0.02,-0.9193125,-1.043802734,9.619456172,0.04,0,0,0,0.04,0,0,0,0.04
1.57E+18,21422,1.57E+18,base_imu_link,-0.034773088,0.060913493,-0.310145092,0.948098308,0.0025,0,0,0,0.0025,0,0,0,0.0025,-0.03,0,0,0,0,0,0,0.02,0,0,0,0.02,-0.833126953,-0.967193359,9.648184688,0.04,0,0,0,0.04,0,0,0,0.04
1.57E+18,21423,1.57E+18,base_imu_link,-0.034693858,0.060401109,-0.309692422,0.948281944,0.0025,0,0,0,0.0025,0,0,0,0.0025,-0.03,0,0,0,0,0,0,0.02,0,0,0,0.02,-0.775669922,-1.158716797,9.724794063,0.04,0,0,0,0.04,0,0,0,0.04
1.57E+18,21424,1.57E+18,base_imu_link,-0.035558345,0.060032762,-0.309523983,0.948328306,0.0025,0,0,0,0.0025,0,0,0,0.0025,-0.03,0,0,0,0,0,0,0.02,0,0,0,0.02,-0.967193359,-0.962596797,9.853880859,0.04,0,0,0,0.04,0,0,0,0.04
1.57E+18,21425,1.57E+18,base_imu_link,-0.035117667,0.06025522,-0.309522585,0.948331075,0.0025,0,0,0,0.0025,0,0,0,0.0025,-0.03,0,0,0,0,0,0,0.02,0,0,0,0.02,-0.914715938,-0.909736328,9.782251094,0.04,0,0,0,0.04,0,0,0,0.04
1.57E+18,21426,1.57E+18,base_imu_link,-0.034521444,0.060142736,-0.309388274,0.948403932,0.0025,0,0,0,0.0025,0,0,0,0.0025,-0.04,0,0,0,0,0,0,0.02,0,0,0,0.02,-1.005498047,-1.106239375,9.829748906,0.04,0,0,0,0.04,0,0,0,0.04
1.57E+18,21427,1.57E+18,base_imu_link,-0.034887261,0.060647423,-0.309665416,0.948267947,0.0025,0,0,0,0.0025,0,0,0,0.0025,-0.04,0,0,0,0,0,0,0.02,0,0,0,0.02,-0.967193359,-0.847682734,9.710238281,0.04,0,0,0,0.04,0,0,0,0.04
1.57E+18,21428,1.57E+18,base_imu_link,-0.033956286,0.060636891,-0.310032646,0.948182417,0.0025,0,0,0,0.0025,0,0,0,0.0025,-0.03,0,0,0,0,0,0,0.02,0,0,0,0.02,-0.818954219,-1.039206172,9.710238281,0.04,0,0,0,0.04,0,0,0,0.04
1.57E+18,21429,1.57E+18,base_imu_link,-0.034329694,0.060103722,-0.309812558,0.948274851,0.0025,0,0,0,0.0025,0,0,0,0.0025,-0.03,-0.01,0.03,0.02,0,0,0,0.02,0,0,0,0.02,-0.933868281,-1.082107422,9.710238281,0.04,0,0,0,0.04,0,0,0,0.04
1.57E+18,21430,1.57E+18,base_imu_link,-0.0347476,0.060303331,-0.309284191,0.948419423,0.0025,0,0,0,0.0025,0,0,0,0.0025,-0.03,0,0.03,0.02,0,0,0,0.02,0,0,0,0.02,-0.87641125,-0.914715938,9.767695313,0.04,0,0,0,0.04,0,0,0,0.04
1.57E+18,21431,1.57E+18,base_imu_link,-0.034185148,0.060037719,-0.309492012,0.948388919,0.0025,0,0,0,0.0025,0,0,0,0.0025,-0.03,0.01,0.03,0.02,0,0,0,0.02,0,0,0,0.02,-0.847682734,-0.976769531,9.671933594,0.04,0,0,0,0.04,0,0,0,0.04
1.57E+18,21432,1.57E+18,base_imu_link,-0.034174161,0.059768775,-0.309679274,0.948345173,0.0025,0,0,0,0.0025,0,0,0,0.0025,-0.03,0,0.03,0.02,0,0,0,0.02,0,0,0,0.02,-1.082107422,-0.924292109,9.84890125,0.04,0,0,0,0.04,0,0,0,0.04
1.57E+18,21433,1.57E+18,base_imu_link,-0.033512576,0.060445328,-0.309236774,0.948470288,0.0025,0,0,0,0.0025,0,0,0,0.0025,-0.04,0,0.03,0.02,0,0,0,0.02,0,0,0,0.02,-0.909736328,-1.000901484,9.686489375,0.04,0,0,0,0.04,0,0,0,0.04
1.57E+18,21434,1.57E+18,base_imu_link,-0.033601645,0.060401407,-0.309568048,0.948361863,0.0025,0,0,0,0.0025,0,0,0,0.0025,-0.04,-0.01,0.03,0.02,0,0,0,0.02,0,0,0,0.02,-0.857258906,-1.110835938,9.585748047,0.04,0,0,0,0.04,0,0,0,0.04
1.57E+18,21435,1.57E+18,base_imu_link,-0.034394408,0.060275001,-0.309216919,0.948456033,0.0025,0,0,0,0.0025,0,0,0,0.0025,-0.03,-0.01,0.02,0.02,0,0,0,0.02,0,0,0,0.02,-0.866835078,-1.062955078,9.810596563,0.04,0,0,0,0.04,0,0,0,0.04
1.57E+18,21436,1.57E+18,base_imu_link,-0.034741765,0.060031469,-0.309388876,0.948402739,0.0025,0,0,0,0.0025,0,0,0,0.0025,-0.03,-0.01,0.03,0.02,0,0,0,0.02,0,0,0,0.02,-0.838106563,-1.082107422,10.00212,0.04,0,0,0,0.04,0,0,0,0.04
1.57E+18,21437,1.57E+18,base_imu_link,-0.034945892,0.05965445,-0.309659673,0.948330648,0.0025,0,0,0,0.0025,0,0,0,0.0025,-0.03,0,0.03,0.02,0,0,0,0.02,0,0,0,0.02,-0.885987422,-1.110835938,9.767695313,0.04,0,0,0,0.04,0,0,0,0.04
1.57E+18,21438,1.57E+18,base_imu_link,-0.035375328,0.059780299,-0.309385335,0.948396339,0.0025,0,0,0,0.0025,0,0,0,0.0025,-0.03,0.01,0.03,0.02,0,0,0,0.02,0,0,0,0.02,-0.953020625,-0.852279297,9.76309875,0.04,0,0,0,0.04,0,0,0,0.04
1.57E+18,21439,1.57E+18,base_imu_link,-0.034422436,0.059849846,-0.309663616,0.948336194,0.0025,0,0,0,0.0025,0,0,0,0.0025,-0.04,0,0.03,0.02,0,0,0,0.02,0,0,0,0.02,-1.024650391,-1.034226563,9.60988,0.04,0,0,0,0.04,0,0,0,0.04
1.57E+18,21440,1.57E+18,base_imu_link,-0.034473498,0.0605123,-0.309691849,0.948283079,0.0025,0,0,0,0.0025,0,0,0,0.0025,-0.04,0,0.03,0.02,0,0,0,0.02,0,0,0,0.02,-1.067934688,-0.953020625,9.772674922,0.04,0,0,0,0.04,0,0,0,0.04
1.57E+18,21441,1.57E+18,base_imu_link,-0.034016483,0.061086252,-0.309497811,0.948326133,0.0025,0,0,0,0.0025,0,0,0,0.0025,-0.04,-0.01,0.02,0.02,0,0,0,0.02,0,0,0,0.02,-0.895563594,-0.986345703,9.786847656,0.04,0,0,0,0.04,0,0,0,0.04
1.57E+18,21442,1.57E+18,base_imu_link,-0.033927902,0.060787318,-0.309607833,0.948312601,0.0025,0,0,0,0.0025,0,0,0,0.0025,-0.03,-0.01,0.02,0.02,0,0,0,0.02,0,0,0,0.02,-0.895563594,-1.134967891,9.700662109,0.04,0,0,0,0.04,0,0,0,0.04
1.57E+18,21443,1.57E+18,base_imu_link,-0.034623545,0.060850299,-0.309907494,0.948185528,0.0025,0,0,0,0.0025,0,0,0,0.0025,-0.03,-0.01,0.03,0.02,0,0,0,0.02,0,0,0,0.02,-0.842703125,-0.914715938,9.537867188,0.04,0,0,0,0.04,0,0,0,0.04
1.57E+18,21444,1.57E+18,base_imu_link,-0.034302715,0.060461241,-0.309785159,0.948262051,0.0025,0,0,0,0.0025,0,0,0,0.0025,-0.03,0,0.03,0.02,0,0,0,0.02,0,0,0,0.02,-0.852279297,-0.928888672,9.715217891,0.04,0,0,0,0.04,0,0,0,0.04
1.57E+18,21445,1.57E+18,base_imu_link,-0.033981735,0.060072267,-0.309662509,0.948338386,0.0025,0,0,0,0.0025,0,0,0,0.0025,-0.03,0.01,0.03,0.02,0,0,0,0.02,0,0,0,0.02,-0.842703125,-0.866835078,9.782251094,0.04,0,0,0,0.04,0,0,0,0.04
1.57E+18,21446,1.57E+18,base_imu_link,-0.033429322,0.059525535,-0.30972612,0.948371721,0.0025,0,0,0,0.0025,0,0,0,0.0025,-0.03,0,0.03,0.02,0,0,0,0.02,0,0,0,0.02,-0.991325313,-0.847682734,9.629032344,0.04,0,0,0,0.04,0,0,0,0.04
1.57E+18,21447,1.57E+18,base_imu_link,-0.03270639,0.059820726,-0.309399026,0.948485116,0.0025,0,0,0,0.0025,0,0,0,0.0025,-0.04,0,0.03,0.02,0,0,0,0.02,0,0,0,0.02,-1.043802734,-1.158716797,9.686489375,0.04,0,0,0,0.04,0,0,0,0.04
1.57E+18,21448,1.57E+18,base_imu_link,-0.033481401,0.060737768,-0.309711585,0.948297766,0.0025,0,0,0,0.0025,0,0,0,0.0025,-0.04,-0.01,0.02,0.02,0,0,0,0.02,0,0,0,0.02,-0.995921875,-0.995921875,9.873033203,0.04,0,0,0,0.04,0,0,0,0.04
1.57E+18,21449,1.57E+18,base_imu_link,-0.03335973,0.060867256,-0.309457622,0.948376658,0.0025,0,0,0,0.0025,0,0,0,0.0025,-0.03,-0.01,0.03,0.02,0,0,0,0.02,0,0,0,0.02,-0.895563594,-0.890583984,9.537867188,0.04,0,0,0,0.04,0,0,0,0.04
1.57E+18,21450,1.57E+18,base_imu_link,-0.032983908,0.060643835,-0.309324079,0.94844768,0.0025,0,0,0,0.0025,0,0,0,0.0025,-0.03,-0.01,0.03,0.02,0,0,0,0.02,0,0,0,0.02,-0.823550781,-0.967193359,9.772674922,0.04,0,0,0,0.04,0,0,0,0.04
1.57E+18,21451,1.57E+18,base_imu_link,-0.032972209,0.060099762,-0.309532807,0.948414621,0.0025,0,0,0,0.0025,0,0,0,0.0025,-0.03,0,0.03,0.02,0,0,0,0.02,0,0,0,0.02,-0.924292109,-0.991325313,9.95921875,0.04,0,0,0,0.04,0,0,0,0.04
1.57E+18,21452,1.57E+18,base_imu_link,-0.032936615,0.0600469,-0.30879307,0.948660313,0.0025,0,0,0,0.0025,0,0,0,0.0025,-0.03,0.01,0.03,0.02,0,0,0,0.02,0,0,0,0.02,-0.861855469,-0.976769531,9.528291016,0.04,0,0,0,0.04,0,0,0,0.04
1.57E+18,21453,1.57E+18,base_imu_link,-0.033135936,0.059947048,-0.309124575,0.948551716,0.0025,0,0,0,0.0025,0,0,0,0.0025,-0.04,0,0.03,0.02,0,0,0,0.02,0,0,0,0.02,-0.991325313,-1.034226563,9.753522578,0.04,0,0,0,0.04,0,0,0,0.04
1.57E+18,21454,1.57E+18,base_imu_link,-0.033258998,0.060367271,-0.309335358,0.948452038,0.0025,0,0,0,0.0025,0,0,0,0.0025,-0.04,0,0.03,0.02,0,0,0,0.02,0,0,0,0.02,-0.943444453,-1.015074219,9.844304688,0.04,0,0,0,0.04,0,0,0,0.04
1.57E+18,21455,1.57E+18,base_imu_link,-0.033336495,0.060397174,-0.309412855,0.948422134,0.0025,0,0,0,0.0025,0,0,0,0.0025,-0.03,-0.01,0.02,0.02,0,0,0,0.02,0,0,0,0.02,-0.828530391,-1.149140625,9.710238281,0.04,0,0,0,0.04,0,0,0,0.04
1.57E+18,21456,1.57E+18,base_imu_link,-0.034323269,0.060174367,-0.309476002,0.948380495,0.0025,0,0,0,0.0025,0,0,0,0.0025,-0.03,-0.01,0.03,0.02,0,0,0,0.02,0,0,0,0.02,-0.928888672,-1.02963,9.796423828,0.04,0,0,0,0.04,0,0,0,0.04
1.57E+18,21457,1.57E+18,base_imu_link,-0.034323269,0.060174367,-0.309476002,0.948380495,0.0025,0,0,0,0.0025,0,0,0,0.0025,-0.03,-0.01,0.03,0.02,0,0,0,0.02,0,0,0,0.02,-0.771073359,-1.005498047,9.729390625,0.04,0,0,0,0.04,0,0,0,0.04
1.57E+18,21458,1.57E+18,base_imu_link,-0.034563261,0.05950124,-0.309189077,0.948507827,0.0025,0,0,0,0.0025,0,0,0,0.0025,-0.03,0,0.03,0.02,0,0,0,0.02,0,0,0,0.02,-0.914715938,-1.058358516,9.738966797,0.04,0,0,0,0.04,0,0,0,0.04
1.57E+18,21459,1.57E+18,base_imu_link,-0.034762045,0.059744436,-0.309079652,0.948520939,0.0025,0,0,0,0.0025,0,0,0,0.0025,-0.03,0.01,0.03,0.02,0,0,0,0.02,0,0,0,0.02,-0.967193359,-0.881007813,9.533270625,0.04,0,0,0,0.04,0,0,0,0.04
1.57E+18,21460,1.57E+18,base_imu_link,-0.034133802,0.059992847,-0.309000631,0.948553821,0.0025,0,0,0,0.0025,0,0,0,0.0025,-0.04,0,0.03,0.02,0,0,0,0.02,0,0,0,0.02,-0.905139766,-0.976769531,9.624052734,0.04,0,0,0,0.04,0,0,0,0.04
1.57E+18,21461,1.57E+18,base_imu_link,-0.034144272,0.059986888,-0.308835072,0.948607738,0.0025,0,0,0,0.0025,0,0,0,0.0025,-0.04,-0.01,0.02,0.02,0,0,0,0.02,0,0,0,0.02,-0.976769531,-1.043802734,9.566595703,0.04,0,0,0,0.04,0,0,0,0.04
1.57E+18,21462,1.57E+18,base_imu_link,-0.034251602,0.060416281,-0.309293881,0.948427117,0.0025,0,0,0,0.0025,0,0,0,0.0025,-0.03,-0.01,0.03,0.02,0,0,0,0.02,0,0,0,0.02,-0.871431641,-1.087087031,9.619456172,0.04,0,0,0,0.04,0,0,0,0.04
1.57E+18,21463,1.57E+18,base_imu_link,-0.034861949,0.060312076,-0.308782295,0.948578195,0.0025,0,0,0,0.0025,0,0,0,0.0025,-0.03,-0.01,0.02,0.02,0,0,0,0.02,0,0,0,0.02,-0.881007813,-1.134967891,9.767695313,0.04,0,0,0,0.04,0,0,0,0.04
1.57E+18,21464,1.57E+18,base_imu_link,-0.035439626,0.060292998,-0.308347976,0.948699274,0.0025,0,0,0,0.0025,0,0,0,0.0025,-0.03,0,0.03,0.02,0,0,0,0.02,0,0,0,0.02,-0.857258906,-0.986345703,9.671933594,0.04,0,0,0,0.04,0,0,0,0.04
1.57E+18,21465,1.57E+18,base_imu_link,-0.035302453,0.060089272,-0.308783598,0.948575619,0.0025,0,0,0,0.0025,0,0,0,0.0025,-0.03,0,0.03,0.02,0,0,0,0.02,0,0,0,0.02,-1.048782344,-0.890583984,9.710238281,0.04,0,0,0,0.04,0,0,0,0.04
1.57E+18,21466,1.57E+18,base_imu_link,-0.034404675,0.060611525,-0.308610034,0.948631861,0.0025,0,0,0,0.0025,0,0,0,0.0025,-0.03,0,0.03,0.02,0,0,0,0.02,0,0,0,0.02,-0.953020625,-0.991325313,9.925510625,0.04,0,0,0,0.04,0,0,0,0.04
1.57E+18,21467,1.57E+18,base_imu_link,-0.03420119,0.060646284,-0.308780633,0.948581482,0.0025,0,0,0,0.0025,0,0,0,0.0025,-0.04,0,0.03,0.02,0,0,0,0.02,0,0,0,0.02,-0.943444453,-0.995921875,9.705641719,0.04,0,0,0,0.04,0,0,0,0.04
1.57E+18,21468,1.57E+18,base_imu_link,-0.034168543,0.060731913,-0.308857869,0.948552034,0.0025,0,0,0,0.0025,0,0,0,0.0025,-0.04,0,0.02,0.02,0,0,0,0.02,0,0,0,0.02,-0.924292109,-1.101259766,9.643205078,0.04,0,0,0,0.04,0,0,0,0.04
1.57E+18,21469,1.57E+18,base_imu_link,-0.034681139,0.060884545,-0.308577692,0.948614832,0.0025,0,0,0,0.0025,0,0,0,0.0025,-0.03,-0.01,0.03,0.02,0,0,0,0.02,0,0,0,0.02,-0.890583984,-1.010477656,9.844304688,0.04,0,0,0,0.04,0,0,0,0.04
1.57E+18,21470,1.57E+18,base_imu_link,-0.034680359,0.060609666,-0.308599728,0.948625294,0.0025,0,0,0,0.0025,0,0,0,0.0025,-0.03,-0.01,0.03,0.02,0,0,0,0.02,0,0,0,0.02,-0.866835078,-1.106239375,9.648184688,0.04,0,0,0,0.04,0,0,0,0.04
1.57E+18,21471,1.57E+18,base_imu_link,-0.035237011,0.060602868,-0.308496392,0.948638826,0.0025,0,0,0,0.0025,0,0,0,0.0025,-0.03,0,0.03,0.02,0,0,0,0.02,0,0,0,0.02,-0.823550781,-1.120412109,9.571575313,0.04,0,0,0,0.04,0,0,0,0.04
1.57E+18,21472,1.57E+18,base_imu_link,-0.035843024,0.060433791,-0.30848721,0.948629894,0.0025,0,0,0,0.0025,0,0,0,0.0025,-0.03,0,0.03,0.02,0,0,0,0.02,0,0,0,0.02,-0.948041016,-0.866835078,9.681509766,0.04,0,0,0,0.04,0,0,0,0.04
1.57E+18,21473,1.57E+18,base_imu_link,-0.034927926,0.060415574,-0.308605891,0.948626587,0.0025,0,0,0,0.0025,0,0,0,0.0025,-0.03,0,0.03,0.02,0,0,0,0.02,0,0,0,0.02,-1.115815547,-1.039206172,9.686489375,0.04,0,0,0,0.04,0,0,0,0.04
1.57E+18,21474,1.57E+18,base_imu_link,-0.034760105,0.061464239,-0.308610836,0.948563775,0.0025,0,0,0,0.0025,0,0,0,0.0025,-0.04,0,0.03,0.02,0,0,0,0.02,0,0,0,0.02,-1.039206172,-0.972172969,9.868053594,0.04,0,0,0,0.04,0,0,0,0.04
1.57E+18,21475,1.57E+18,base_imu_link,-0.034407402,0.061778649,-0.308102181,0.948721548,0.0025,0,0,0,0.0025,0,0,0,0.0025,-0.04,-0.01,0.03,0.02,0,0,0,0.02,0,0,0,0.02,-0.905139766,-1.082107422,9.614476563,0.04,0,0,0,0.04,0,0,0,0.04
1.57E+18,21476,1.57E+18,base_imu_link,-0.034804334,0.061647344,-0.308345867,0.948636437,0.0025,0,0,0,0.0025,0,0,0,0.0025,-0.03,-0.01,0.03,0.02,0,0,0,0.02,0,0,0,0.02,-0.842703125,-0.991325313,9.767695313,0.04,0,0,0,0.04,0,0,0,0.04
1.57E+18,21477,1.57E+18,base_imu_link,-0.034781368,0.061109768,-0.308721414,0.948549915,0.0025,0,0,0,0.0025,0,0,0,0.0025,-0.03,-0.01,0.03,0.02,0,0,0,0.02,0,0,0,0.02,-0.87641125,-1.015074219,9.76309875,0.04,0,0,0,0.04,0,0,0,0.04
1.57E+18,21478,1.57E+18,base_imu_link,-0.034801872,0.060822751,-0.3084124,0.948668127,0.0025,0,0,0,0.0025,0,0,0,0.0025,-0.03,0,0.03,0.02,0,0,0,0.02,0,0,0,0.02,-0.905139766,-0.9193125,9.801403438,0.04,0,0,0,0.04,0,0,0,0.04
1.57E+18,21479,1.57E+18,base_imu_link,-0.034289264,0.060670238,-0.308692559,0.948605436,0.0025,0,0,0,0.0025,0,0,0,0.0025,-0.03,0.01,0.03,0.02,0,0,0,0.02,0,0,0,0.02,-0.881007813,-1.020053828,9.729390625,0.04,0,0,0,0.04,0,0,0,0.04
1.57E+18,21480,1.57E+18,base_imu_link,-0.03443729,0.060525867,-0.3085328,0.948661269,0.0025,0,0,0,0.0025,0,0,0,0.0025,-0.04,0,0.03,0.02,0,0,0,0.02,0,0,0,0.02,-0.842703125,-0.9193125,9.782251094,0.04,0,0,0,0.04,0,0,0,0.04
1.57E+18,21481,1.57E+18,base_imu_link,-0.034159975,0.059977947,-0.308586717,0.948688558,0.0025,0,0,0,0.0025,0,0,0,0.0025,-0.04,0,0.03,0.02,0,0,0,0.02,0,0,0,0.02,-0.871431641,-1.129988281,9.705641719,0.04,0,0,0,0.04,0,0,0,0.04
1.57E+18,21482,1.57E+18,base_imu_link,-0.034893788,0.059951489,-0.308727006,0.948617878,0.0025,0,0,0,0.0025,0,0,0,0.0025,-0.04,-0.01,0.02,0.02,0,0,0,0.02,0,0,0,0.02,-0.986345703,-1.000901484,9.643205078,0.04,0,0,0,0.04,0,0,0,0.04
1.57E+18,21483,1.57E+18,base_imu_link,-0.034690104,0.060328725,-0.308456125,0.948689549,0.0025,0,0,0,0.0025,0,0,0,0.0025,-0.03,-0.01,0.03,0.02,0,0,0,0.02,0,0,0,0.02,-0.847682734,-1.106239375,9.786847656,0.04,0,0,0,0.04,0,0,0,0.04
1.57E+18,21484,1.57E+18,base_imu_link,-0.035209191,0.060068471,-0.308954394,0.948524788,0.0025,0,0,0,0.0025,0,0,0,0.0025,-0.03,-0.01,0.03,0.02,0,0,0,0.02,0,0,0,0.02,-0.833126953,-1.144544063,9.533270625,0.04,0,0,0,0.04,0,0,0,0.04
1.57E+18,21485,1.57E+18,base_imu_link,-0.035963943,0.060029952,-0.308763742,0.94856099,0.0025,0,0,0,0.0025,0,0,0,0.0025,-0.03,0,0.03,0.02,0,0,0,0.02,0,0,0,0.02,-0.957617188,-1.067934688,9.930490234,0.04,0,0,0,0.04,0,0,0,0.04
1.57E+18,21486,1.57E+18,base_imu_link,-0.035918714,0.060255955,-0.308167338,0.948742303,0.0025,0,0,0,0.0025,0,0,0,0.0025,-0.03,0.01,0.03,0.02,0,0,0,0.02,0,0,0,0.02,-0.986345703,-0.87641125,9.734370234,0.04,0,0,0,0.04,0,0,0,0.04
1.57E+18,21487,1.57E+18,base_imu_link,-0.035015061,0.06050683,-0.308098292,0.948782542,0.0025,0,0,0,0.0025,0,0,0,0.0025,-0.03,0,0.03,0.02,0,0,0,0.02,0,0,0,0.02,-0.962596797,-1.053378906,9.782251094,0.04,0,0,0,0.04,0,0,0,0.04
1.57E+18,21488,1.57E+18,base_imu_link,-0.035094271,0.060744312,-0.308573253,0.948610072,0.0025,0,0,0,0.0025,0,0,0,0.0025,-0.04,-0.01,0.02,0.02,0,0,0,0.02,0,0,0,0.02,-0.938464844,-0.938464844,9.537867188,0.04,0,0,0,0.04,0,0,0,0.04
1.57E+18,21489,1.57E+18,base_imu_link,-0.034813289,0.060749214,-0.308666339,0.948589826,0.0025,0,0,0,0.0025,0,0,0,0.0025,-0.04,-0.01,0.02,0.02,0,0,0,0.02,0,0,0,0.02,-0.948041016,-0.991325313,9.671933594,0.04,0,0,0,0.04,0,0,0,0.04
1.57E+18,21490,1.57E+18,base_imu_link,-0.034620387,0.060777988,-0.308671362,0.948593409,0.0025,0,0,0,0.0025,0,0,0,0.0025,-0.03,-0.01,0.03,0.02,0,0,0,0.02,0,0,0,0.02,-0.928888672,-0.986345703,9.710238281,0.04,0,0,0,0.04,0,0,0,0.04
1.57E+18,21491,1.57E+18,base_imu_link,-0.034443403,0.060797747,-0.30842805,0.948677724,0.0025,0,0,0,0.0025,0,0,0,0.0025,-0.03,0,0.03,0.02,0,0,0,0.02,0,0,0,0.02,-0.828530391,-0.890583984,9.600303828,0.04,0,0,0,0.04,0,0,0,0.04
1.57E+18,21492,1.57E+18,base_imu_link,-0.034037235,0.060175248,-0.307913075,0.948899333,0.0025,0,0,0,0.0025,0,0,0,0.0025,-0.03,0,0.03,0.02,0,0,0,0.02,0,0,0,0.02,-0.809378047,-1.082107422,9.753522578,0.04,0,0,0,0.04,0,0,0,0.04
1.57E+18,21493,1.57E+18,base_imu_link,-0.034577146,0.059902248,-0.308080047,0.948842888,0.0025,0,0,0,0.0025,0,0,0,0.0025,-0.03,0.01,0.03,0.02,0,0,0,0.02,0,0,0,0.02,-0.991325313,-0.924292109,9.657760859,0.04,0,0,0,0.04,0,0,0,0.04
1.57E+18,21494,1.57E+18,base_imu_link,-0.034092775,0.060284795,-0.307902314,0.948893878,0.0025,0,0,0,0.0025,0,0,0,0.0025,-0.04,0,0.03,0.02,0,0,0,0.02,0,0,0,0.02,-0.986345703,-0.981749141,9.810596563,0.04,0,0,0,0.04,0,0,0,0.04
1.57E+18,21495,1.57E+18,base_imu_link,-0.033917607,0.060511875,-0.308056665,0.948835602,0.0025,0,0,0,0.0025,0,0,0,0.0025,-0.04,-0.01,0.02,0.02,0,0,0,0.02,0,0,0,0.02,-0.943444453,-0.967193359,9.801403438,0.04,0,0,0,0.04,0,0,0,0.04
1.57E+18,21496,1.57E+18,base_imu_link,-0.033736174,0.060466942,-0.308315617,0.948760823,0.0025,0,0,0,0.0025,0,0,0,0.0025,-0.03,-0.01,0.02,0.02,0,0,0,0.02,0,0,0,0.02,-1.015074219,-1.139564453,9.595324219,0.04,0,0,0,0.04,0,0,0,0.04
1.57E+18,21497,1.57E+18,base_imu_link,-0.034387454,0.061098379,-0.307577791,0.948936454,0.0025,0,0,0,0.0025,0,0,0,0.0025,-0.03,-0.01,0.02,0.02,0,0,0,0.02,0,0,0,0.02,-0.852279297,-1.120412109,9.753522578,0.04,0,0,0,0.04,0,0,0,0.04
1.57E+18,21498,1.57E+18,base_imu_link,-0.035020557,0.060846041,-0.307573798,0.948930808,0.0025,0,0,0,0.0025,0,0,0,0.0025,-0.03,0,0.03,0.02,0,0,0,0.02,0,0,0,0.02,-0.828530391,-0.976769531,9.470833984,0.04,0,0,0,0.04,0,0,0,0.04
1.57E+18,21499,1.57E+18,base_imu_link,-0.03493668,0.060544323,-0.307601166,0.948944327,0.0025,0,0,0,0.0025,0,0,0,0.0025,-0.03,0,0.03,0.02,0,0,0,0.02,0,0,0,0.02,-0.775669922,-1.039206172,9.705641719,0.04,0,0,0,0.04,0,0,0,0.04
1.57E+18,21500,1.57E+18,base_imu_link,-0.035293028,0.060019251,-0.307629703,0.948955245,0.0025,0,0,0,0.0025,0,0,0,0.0025,-0.03,0.01,0.03,0.02,0,0,0,0.02,0,0,0,0.02,-0.967193359,-1.163696406,9.710238281,0.04,0,0,0,0.04,0,0,0,0.04
1.57E+18,21501,1.57E+18,base_imu_link,-0.035939907,0.060585276,-0.307394254,0.948971296,0.0025,0,0,0,0.0025,0,0,0,0.0025,-0.03,0,0.03,0.02,0,0,0,0.02,0,0,0,0.02,-1.02963,-0.976769531,9.671933594,0.04,0,0,0,0.04,0,0,0,0.04
1.57E+18,21502,1.57E+18,base_imu_link,-0.035517411,0.061007078,-0.307541897,0.948912341,0.0025,0,0,0,0.0025,0,0,0,0.0025,-0.04,-0.01,0.03,0.02,0,0,0,0.02,0,0,0,0.02,-0.895563594,-0.885987422,9.60988,0.04,0,0,0,0.04,0,0,0,0.04
1.57E+18,21503,1.57E+18,base_imu_link,-0.034914723,0.060623955,-0.307512772,0.9489687,0.0025,0,0,0,0.0025,0,0,0,0.0025,-0.03,-0.01,0.03,0.02,0,0,0,0.02,0,0,0,0.02,-0.957617188,-1.187445313,9.791827266,0.04,0,0,0,0.04,0,0,0,0.04
1.57E+18,21504,1.57E+18,base_imu_link,-0.035704956,0.060981196,-0.30761971,0.948881744,0.0025,0,0,0,0.0025,0,0,0,0.0025,-0.03,-0.01,0.03,0.02,0,0,0,0.02,0,0,0,0.02,-0.871431641,-1.115815547,9.791827266,0.04,0,0,0,0.04,0,0,0,0.04
1.57E+18,21505,1.57E+18,base_imu_link,-0.036058787,0.060942122,-0.308106561,0.948712901,0.0025,0,0,0,0.0025,0,0,0,0.0025,-0.03,0,0.03,0.02,0,0,0,0.02,0,0,0,0.02,-0.866835078,-1.07253125,9.696065547,0.04,0,0,0,0.04,0,0,0,0.04
1.57E+18,21506,1.57E+18,base_imu_link,-0.036294894,0.060821086,-0.307858928,0.948792051,0.0025,0,0,0,0.0025,0,0,0,0.0025,-0.03,0,0.03,0.02,0,0,0,0.02,0,0,0,0.02,-0.962596797,-1.024650391,9.585748047,0.04,0,0,0,0.04,0,0,0,0.04
1.57E+18,21507,1.57E+18,base_imu_link,-0.036086975,0.061134318,-0.308089856,0.948704889,0.0025,0,0,0,0.0025,0,0,0,0.0025,-0.03,0,0.03,0.02,0,0,0,0.02,0,0,0,0.02,-0.986345703,-0.914715938,9.743946406,0.04,0,0,0,0.04,0,0,0,0.04
1.57E+18,21508,1.57E+18,base_imu_link,-0.035414277,0.061267462,-0.307856162,0.948797508,0.0025,0,0,0,0.0025,0,0,0,0.0025,-0.04,0,0.03,0.02,0,0,0,0.02,0,0,0,0.02,-0.928888672,-1.154120234,9.700662109,0.04,0,0,0,0.04,0,0,0,0.04
1.57E+18,21509,1.57E+18,base_imu_link,-0.036141435,0.061377646,-0.307239393,0.948962874,0.0025,0,0,0,0.0025,0,0,0,0.0025,-0.04,-0.01,0.03,0.02,0,0,0,0.02,0,0,0,0.02,-0.938464844,-0.957617188,9.767695313,0.04,0,0,0,0.04,0,0,0,0.04
1.57E+18,21510,1.57E+18,base_imu_link,-0.035700642,0.061259165,-0.307680186,0.948844393,0.0025,0,0,0,0.0025,0,0,0,0.0025,-0.03,-0.01,0.02,0.02,0,0,0,0.02,0,0,0,0.02,-0.866835078,-1.024650391,9.729390625,0.04,0,0,0,0.04,0,0,0,0.04
1.57E+18,21511,1.57E+18,base_imu_link,-0.035770083,0.060809611,-0.307465405,0.948940313,0.0025,0,0,0,0.0025,0,0,0,0.0025,-0.03,-0.01,0.03,0.02,0,0,0,0.02,0,0,0,0.02,-0.852279297,-1.125391719,9.724794063,0.04,0,0,0,0.04,0,0,0,0.04
1.57E+18,21512,1.57E+18,base_imu_link,-0.036265861,0.060695739,-0.307455898,0.948931866,0.0025,0,0,0,0.0025,0,0,0,0.0025,-0.03,0,0.03,0.02,0,0,0,0.02,0,0,0,0.02,-0.885987422,-0.957617188,9.738966797,0.04,0,0,0,0.04,0,0,0,0.04
1.57E+18,21513,1.57E+18,base_imu_link,-0.035796238,0.060452068,-0.307493273,0.948953141,0.0025,0,0,0,0.0025,0,0,0,0.0025,-0.03,0.01,0.03,0.02,0,0,0,0.02,0,0,0,0.02,-0.828530391,-1.062955078,9.566595703,0.04,0,0,0,0.04,0,0,0,0.04
1.57E+18,21514,1.57E+18,base_imu_link,-0.036142176,0.060275074,-0.307245953,0.949031392,0.0025,0,0,0,0.0025,0,0,0,0.0025,-0.03,0,0.03,0.02,0,0,0,0.02,0,0,0,0.02,-1.010477656,-0.933868281,9.619456172,0.04,0,0,0,0.04,0,0,0,0.04
1.57E+18,21515,1.57E+18,base_imu_link,-0.035558741,0.060707405,-0.306901576,0.949137297,0.0025,0,0,0,0.0025,0,0,0,0.0025,-0.04,0,0.02,0.02,0,0,0,0.02,0,0,0,0.02,-0.962596797,-0.909736328,9.514118281,0.04,0,0,0,0.04,0,0,0,0.04
1.57E+18,21516,1.57E+18,base_imu_link,-0.035052411,0.060827696,-0.307076897,0.949091723,0.0025,0,0,0,0.0025,0,0,0,0.0025,-0.04,-0.01,0.02,0.02,0,0,0,0.02,0,0,0,0.02,-0.953020625,-1.02963,9.667337031,0.04,0,0,0,0.04,0,0,0,0.04
1.57E+18,21517,1.57E+18,base_imu_link,-0.035108029,0.060937183,-0.307065979,0.949086177,0.0025,0,0,0,0.0025,0,0,0,0.0025,-0.03,-0.01,0.03,0.02,0,0,0,0.02,0,0,0,0.02,-1.005498047,-0.9193125,9.786847656,0.04,0,0,0,0.04,0,0,0,0.04
1.57E+18,21518,1.57E+18,base_imu_link,-0.03441411,0.061083369,-0.30716371,0.94907057,0.0025,0,0,0,0.0025,0,0,0,0.0025,-0.03,0,0.03,0.02,0,0,0,0.02,0,0,0,0.02,-0.794822266,-1.02963,9.686489375,0.04,0,0,0,0.04,0,0,0,0.04
1.57E+18,21519,1.57E+18,base_imu_link,-0.034676849,0.060537395,-0.307363,0.949031467,0.0025,0,0,0,0.0025,0,0,0,0.0025,-0.03,0,0.03,0.02,0,0,0,0.02,0,0,0,0.02,-0.933868281,-1.082107422,9.734370234,0.04,0,0,0,0.04,0,0,0,0.04
1.57E+18,21520,1.57E+18,base_imu_link,-0.035028579,0.060699874,-0.306590809,0.949257921,0.0025,0,0,0,0.0025,0,0,0,0.0025,-0.03,0,0.03,0.02,0,0,0,0.02,0,0,0,0.02,-0.986345703,-0.823550781,9.868053594,0.04,0,0,0,0.04,0,0,0,0.04
1.57E+18,21521,1.57E+18,base_imu_link,-0.033925862,0.060709623,-0.306632173,0.949283987,0.0025,0,0,0,0.0025,0,0,0,0.0025,-0.03,0,0.03,0.02,0,0,0,0.02,0,0,0,0.02,-0.905139766,-1.062955078,9.514118281,0.04,0,0,0,0.04,0,0,0,0.04
1.57E+18,21522,1.57E+18,base_imu_link,-0.034335404,0.060778689,-0.307108197,0.949110945,0.0025,0,0,0,0.0025,0,0,0,0.0025,-0.04,-0.01,0.03,0.02,0,0,0,0.02,0,0,0,0.02,-0.976769531,-1.053378906,9.667337031,0.04,0,0,0,0.04,0,0,0,0.04
1.57E+18,21523,1.57E+18,base_imu_link,-0.034606427,0.061121884,-0.306738908,0.949198479,0.0025,0,0,0,0.0025,0,0,0,0.0025,-0.03,-0.01,0.02,0.02,0,0,0,0.02,0,0,0,0.02,-0.905139766,-0.986345703,9.667337031,0.04,0,0,0,0.04,0,0,0,0.04
1.57E+18,21524,1.57E+18,base_imu_link,-0.034463218,0.060920997,-0.307257666,0.949048811,0.0025,0,0,0,0.0025,0,0,0,0.0025,-0.03,-0.01,0.03,0.02,0,0,0,0.02,0,0,0,0.02,-0.794822266,-1.087087031,9.509138672,0.04,0,0,0,0.04,0,0,0,0.04
1.57E+18,21525,1.57E+18,base_imu_link,-0.035128739,0.060582687,-0.307176513,0.949072336,0.0025,0,0,0,0.0025,0,0,0,0.0025,-0.03,0,0.03,0.02,0,0,0,0.02,0,0,0,0.02,-0.967193359,-0.986345703,9.638608516,0.04,0,0,0,0.04,0,0,0,0.04
1.57E+18,21526,1.57E+18,base_imu_link,-0.034870179,0.060850706,-0.306916268,0.949148917,0.0025,0,0,0,0.0025,0,0,0,0.0025,-0.03,0,0.03,0.02,0,0,0,0.02,0,0,0,0.02,-0.828530391,-1.043802734,9.724794063,0.04,0,0,0,0.04,0,0,0,0.04
1.57E+18,21527,1.57E+18,base_imu_link,-0.035094235,0.060460943,-0.306856075,0.949185029,0.0025,0,0,0,0.0025,0,0,0,0.0025,-0.03,0.01,0.03,0.02,0,0,0,0.02,0,0,0,0.02,-0.995921875,-1.067934688,9.537867188,0.04,0,0,0,0.04,0,0,0,0.04
1.57E+18,21528,1.57E+18,base_imu_link,-0.035246469,0.061073464,-0.307049712,0.949077548,0.0025,0,0,0,0.0025,0,0,0,0.0025,-0.03,0,0.03,0.02,0,0,0,0.02,0,0,0,0.02,-1.020053828,-0.905139766,9.853880859,0.04,0,0,0,0.04,0,0,0,0.04
1.57E+18,21529,1.57E+18,base_imu_link,-0.034503927,0.061314401,-0.307473138,0.948952208,0.0025,0,0,0,0.0025,0,0,0,0.0025,-0.04,-0.01,0.03,0.02,0,0,0,0.02,0,0,0,0.02,-0.957617188,-1.015074219,9.485389766,0.04,0,0,0,0.04,0,0,0,0.04
1.57E+18,21530,1.57E+18,base_imu_link,-0.034554136,0.061426926,-0.307544998,0.948919817,0.0025,0,0,0,0.0025,0,0,0,0.0025,-0.03,-0.01,0.02,0.02,0,0,0,0.02,0,0,0,0.02,-1.039206172,-1.02963,9.873033203,0.04,0,0,0,0.04,0,0,0,0.04
1.57E+18,21531,1.57E+18,base_imu_link,-0.034423279,0.061837288,-0.307434164,0.948933835,0.0025,0,0,0,0.0025,0,0,0,0.0025,-0.03,-0.01,0.03,0.02,0,0,0,0.02,0,0,0,0.02,-0.885987422,-1.024650391,9.710238281,0.04,0,0,0,0.04,0,0,0,0.04
1.57E+18,21532,1.57E+18,base_imu_link,-0.034553721,0.061494529,-0.307125325,0.949051367,0.0025,0,0,0,0.0025,0,0,0,0.0025,-0.03,0,0.03,0.02,0,0,0,0.02,0,0,0,0.02,-0.823550781,-1.067934688,9.772674922,0.04,0,0,0,0.04,0,0,0,0.04
1.57E+18,21533,1.57E+18,base_imu_link,-0.03486133,0.061064187,-0.307479501,0.948953218,0.0025,0,0,0,0.0025,0,0,0,0.0025,-0.03,0,0.03,0.02,0,0,0,0.02,0,0,0,0.02,-0.813974609,-0.995921875,9.710238281,0.04,0,0,0,0.04,0,0,0,0.04
1.57E+18,21534,1.57E+18,base_imu_link,-0.034963094,0.060529073,-0.307187082,0.949078453,0.0025,0,0,0,0.0025,0,0,0,0.0025,-0.03,0.01,0.03,0.02,0,0,0,0.02,0,0,0,0.02,-0.9193125,-1.024650391,9.753522578,0.04,0,0,0,0.04,0,0,0,0.04
1.57E+18,21535,1.57E+18,base_imu_link,-0.035045916,0.06055588,-0.307181798,0.949075398,0.0025,0,0,0,0.0025,0,0,0,0.0025,-0.04,0,0.03,0.02,0,0,0,0.02,0,0,0,0.02,-0.972172969,-1.096663203,9.724794063,0.04,0,0,0,0.04,0,0,0,0.04
1.57E+18,21536,1.57E+18,base_imu_link,-0.035335835,0.060962653,-0.307800956,0.948837976,0.0025,0,0,0,0.0025,0,0,0,0.0025,-0.04,-0.01,0.02,0.02,0,0,0,0.02,0,0,0,0.02,-0.981749141,-1.005498047,9.60988,0.04,0,0,0,0.04,0,0,0,0.04
1.57E+18,21537,1.57E+18,base_imu_link,-0.035280726,0.061195266,-0.307370016,0.948964743,0.0025,0,0,0,0.0025,0,0,0,0.0025,-0.04,-0.01,0.02,0.02,0,0,0,0.02,0,0,0,0.02,-0.933868281,-1.158716797,9.614476563,0.04,0,0,0,0.04,0,0,0,0.04
1.57E+18,21538,1.57E+18,base_imu_link,-0.035932501,0.061416108,-0.307492835,0.948886228,0.0025,0,0,0,0.0025,0,0,0,0.0025,-0.03,-0.01,0.03,0.02,0,0,0,0.02,0,0,0,0.02,-0.928888672,-1.034226563,9.753522578,0.04,0,0,0,0.04,0,0,0,0.04
1.57E+18,21539,1.57E+18,base_imu_link,-0.035844338,0.061392402,-0.307580999,0.948862522,0.0025,0,0,0,0.0025,0,0,0,0.0025,-0.03,0,0.03,0.02,0,0,0,0.02,0,0,0,0.02,-0.790225703,-1.015074219,9.729390625,0.04,0,0,0,0.04,0,0,0,0.04
1.57E+18,21540,1.57E+18,base_imu_link,-0.035902083,0.060674223,-0.307554221,0.948915212,0.0025,0,0,0,0.0025,0,0,0,0.0025,-0.03,0,0.03,0.02,0,0,0,0.02,0,0,0,0.02,-0.976769531,-1.010477656,9.480410156,0.04,0,0,0,0.04,0,0,0,0.04
1.57E+18,21541,1.57E+18,base_imu_link,-0.035733246,0.06117338,-0.307603053,0.948873708,0.0025,0,0,0,0.0025,0,0,0,0.0025,-0.03,0.01,0.03,0.02,0,0,0,0.02,0,0,0,0.02,-0.909736328,-0.924292109,9.786847656,0.04,0,0,0,0.04,0,0,0,0.04
1.57E+18,21542,1.57E+18,base_imu_link,-0.035257707,0.061000008,-0.307303796,0.948999615,0.0025,0,0,0,0.0025,0,0,0,0.0025,-0.04,0,0.03,0.02,0,0,0,0.02,0,0,0,0.02,-0.87641125,-0.991325313,9.561999141,0.04,0,0,0,0.04,0,0,0,0.04
1.57E+18,21543,1.57E+18,base_imu_link,-0.035224039,0.060810899,-0.307403166,0.948980819,0.0025,0,0,0,0.0025,0,0,0,0.0025,-0.04,-0.01,0.02,0.02,0,0,0,0.02,0,0,0,0.02,-1.015074219,-1.000901484,9.581151484,0.04,0,0,0,0.04,0,0,0,0.04
1.57E+18,21544,1.57E+18,base_imu_link,-0.035071835,0.061233481,-0.307623496,0.948887882,0.0025,0,0,0,0.0025,0,0,0,0.0025,-0.03,-0.01,0.03,0.02,0,0,0,0.02,0,0,0,0.02,-0.924292109,-1.058358516,9.887205938,0.04,0,0,0,0.04,0,0,0,0.04
1.57E+18,21545,1.57E+18,base_imu_link,-0.035193159,0.061104199,-0.307877822,0.948809235,0.0025,0,0,0,0.0025,0,0,0,0.0025,-0.03,-0.01,0.03,0.02,0,0,0,0.02,0,0,0,0.02,-0.804398438,-1.005498047,9.523694453,0.04,0,0,0,0.04,0,0,0,0.04
1.57E+18,21546,1.57E+18,base_imu_link,-0.035279311,0.060578253,-0.307834042,0.948853966,0.0025,0,0,0,0.0025,0,0,0,0.0025,-0.03,0,0.03,0.02,0,0,0,0.02,0,0,0,0.02,-0.852279297,-0.885987422,9.657760859,0.04,0,0,0,0.04,0,0,0,0.04
1.57E+18,21547,1.57E+18,base_imu_link,-0.03469868,0.060115305,-0.307892898,0.948885723,0.0025,0,0,0,0.0025,0,0,0,0.0025,-0.03,0,0.03,0.02,0,0,0,0.02,0,0,0,0.02,-0.914715938,-0.962596797,9.700662109,0.04,0,0,0,0.04,0,0,0,0.04
1.57E+18,21548,1.57E+18,base_imu_link,-0.0344943,0.06021789,-0.307643895,0.94896743,0.0025,0,0,0,0.0025,0,0,0,0.0025,-0.03,0,0.03,0.02,0,0,0,0.02,0,0,0,0.02,-1.020053828,-0.938464844,9.801403438,0.04,0,0,0,0.04,0,0,0,0.04
1.57E+18,21549,1.57E+18,base_imu_link,-0.03403659,0.060585819,-0.307052084,0.949152194,0.0025,0,0,0,0.0025,0,0,0,0.0025,-0.04,0,0.03,0.02,0,0,0,0.02,0,0,0,0.02,-0.905139766,-1.115815547,9.786847656,0.04,0,0,0,0.04,0,0,0,0.04
